City ID,weather,base,visibility,dt,timezone,id,name,cod,coord.lon,coord.lat,main.temp,main.feels_like,main.temp_min,main.temp_max,main.pressure,main.humidity,wind.speed,wind.deg,rain.3h,clouds.all,sys.type,sys.id,sys.country,sys.sunrise,sys.sunset,main.sea_level,main.grnd_level,wind.gust,rain.1h,snow.3h,snow.1h
0,"[{'id': 500, 'main': 'Rain', 'description': 'light rain', 'icon': '10d'}]",stations,10000.0,1581138023,46800,2179537,Wellington,200,174.78,-41.29,62.6,51.94,62.6,62.6,1016,72,20.8,170.0,0.63,75,1.0,7358.0,NZ,1581096879,1581147326,,,,,,
1,"[{'id': 800, 'main': 'Clear', 'description': 'clear sky', 'icon': '01n'}]",model,,1581138290,0,2455290,Kidal,200,1.41,18.44,61.43,47.55,61.43,61.43,1019,25,16.73,86.0,,0,,,ML,1581143139,1581184287,1019.0,962.0,,,,
2,"[{'id': 804, 'main': 'Clouds', 'description': 'overcast clouds', 'icon': '04n'}]",stations,16093.0,1581138291,-32400,5866583,Kodiak,200,-152.41,57.79,35.6,29.61,35.6,35.6,1008,74,3.36,170.0,,90,1.0,7668.0,US,1581098396,1581130060,,,,,,
3,"[{'id': 800, 'main': 'Clear', 'description': 'clear sky', 'icon': '01d'}]",model,,1581138291,18000,1514792,Gazojak,200,61.4,41.19,55.67,45.19,55.67,55.67,1007,37,11.72,199.0,,0,,,TM,1581130737,1581167892,1007.0,991.0,,,,
4,"[{'id': 802, 'main': 'Clouds', 'description': 'scattered clouds', 'icon': '03d'}]",model,,1581138291,36000,2120048,Ust-Nera,200,143.2,64.57,-34.8,-42.83,-34.8,-34.8,1032,100,1.72,225.0,,32,,,RU,1581115922,1581143442,1032.0,900.0,,,,
5,"[{'id': 804, 'main': 'Clouds', 'description': 'overcast clouds', 'icon': '04n'}]",stations,10000.0,1581138291,3600,2980915,Arrondissement de Saint-Denis,200,2.33,48.92,47.23,40.48,45.0,48.2,1019,76,8.05,150.0,,90,1.0,6540.0,FR,1581145909,1581181075,,,,,,
6,"[{'id': 800, 'main': 'Clear', 'description': 'clear sky', 'icon': '01n'}]",model,,1581138291,-10800,3471451,Arraial do Cabo,200,-42.03,-22.97,76.06,76.06,76.06,76.06,1013,85,14.65,60.0,,0,,,BR,1581150735,1581197544,1013.0,1013.0,,,,
7,"[{'id': 500, 'main': 'Rain', 'description': 'light rain', 'icon': '10d'}]",model,,1581138292,3600,218680,Boende,200,20.87,-0.22,75.34,83.35,75.34,75.34,1011,87,0.43,194.0,1.19,51,,,CD,1581137222,1581180863,1011.0,968.0,,,,
8,"[{'id': 804, 'main': 'Clouds', 'description': 'overcast clouds', 'icon': '04d'}]",model,,1581138292,25200,1489401,Toora-Khem,200,96.11,52.47,18.3,10.99,18.3,18.3,1028,81,3.13,127.0,,99,,,RU,1581124010,1581157958,1028.0,892.0,,,,
9,"[{'id': 620, 'main': 'Snow', 'description': 'light shower snow', 'icon': '13d'}]",stations,8000.0,1581138292,10800,583811,Akhtanizovskaya,200,37.1,45.32,23.0,10.22,23.0,23.0,1016,79,13.42,10.0,,75,1.0,8962.0,RU,1581137068,1581173226,,,,,,
10,"[{'id': 803, 'main': 'Clouds', 'description': 'broken clouds', 'icon': '04n'}]",stations,6000.0,1581138293,3600,3107765,Torrelodones,200,-3.93,40.58,41.59,38.7,37.99,45.0,1023,93,1.12,,,75,1.0,6421.0,ES,1581146336,1581183654,,,,,,
11,"[{'id': 803, 'main': 'Clouds', 'description': 'broken clouds', 'icon': '04n'}]",stations,16093.0,1581138293,-18000,5282297,Bethel,200,-73.41,41.37,30.18,12.29,25.0,33.8,1006,68,23.04,300.0,,75,1.0,5951.0,US,1581163086,1581200255,,,32.21,,,
12,"[{'id': 803, 'main': 'Clouds', 'description': 'broken clouds', 'icon': '04d'}]",stations,10000.0,1581138001,39600,2163355,Hobart,200,147.33,-42.88,62.76,55.49,57.99,66.99,1031,55,11.41,110.0,,75,1.0,9545.0,AU,1581103269,1581154112,,,,,,
13,"[{'id': 804, 'main': 'Clouds', 'description': 'overcast clouds', 'icon': '04n'}]",model,,1581138294,-32400,4030556,Rikitea,200,-134.97,-23.12,78.53,76.24,78.53,78.53,1020,78,18.59,109.0,,100,,,PF,1581086599,1581133484,1020.0,1020.0,,,,
14,"[{'id': 800, 'main': 'Clear', 'description': 'clear sky', 'icon': '01d'}]",model,,1581138294,36000,2017658,Preobrazheniye,200,133.91,42.9,15.49,5.9,15.49,15.49,1024,35,5.37,350.0,,0,,,RU,1581113550,1581150274,1024.0,984.0,,,,
15,"[{'id': 801, 'main': 'Clouds', 'description': 'few clouds', 'icon': '02n'}]",stations,10000.0,1581138294,-10800,3899539,Antofagasta,200,-70.4,-23.65,64.4,61.54,64.4,64.4,1014,88,11.41,200.0,,20,1.0,8488.0,CL,1581157493,1581204404,,,,,,
16,"[{'id': 802, 'main': 'Clouds', 'description': 'scattered clouds', 'icon': '03d'}]",stations,10000.0,1581138295,34200,6355222,Yulara,200,130.99,-25.24,100.4,93.45,100.4,100.4,1010,9,5.82,80.0,,50,1.0,9487.0,AU,1581109007,1581156218,,,17.22,,,
17,"[{'id': 500, 'main': 'Rain', 'description': 'light rain', 'icon': '10d'}]",stations,,1581138295,7200,1015776,Bredasdorp,200,20.04,-34.53,67.05,65.84,66.2,68.0,1014,88,10.29,140.0,0.13,46,1.0,1966.0,ZA,1581134804,1581183679,,,23.04,,,
18,"[{'id': 800, 'main': 'Clear', 'description': 'clear sky', 'icon': '01n'}]",model,,1581138295,-14400,3831208,Qaanaaq,200,-69.36,77.48,-30.5,-37.91,-30.5,-30.5,997,74,0.63,340.0,,0,,,GL,0,0,997.0,955.0,,,,
19,"[{'id': 801, 'main': 'Clouds', 'description': 'few clouds', 'icon': '02n'}]",model,,1581138295,-34200,4020109,Atuona,200,-139.03,-9.8,81.79,80.56,81.79,81.79,1012,75,18.61,74.0,,17,,,PF,1581088554,1581133479,1012.0,1011.0,,,,
20,"[{'id': 800, 'main': 'Clear', 'description': 'clear sky', 'icon': '01d'}]",stations,,1581138296,28800,2075265,Busselton,200,115.33,-33.65,88.3,79.97,84.99,91.0,1001,33,17.85,278.0,,0,3.0,2011706.0,AU,1581112007,1581160735,,,,,,
21,"[{'id': 800, 'main': 'Clear', 'description': 'clear sky', 'icon': '01d'}]",stations,10000.0,1581138051,7200,3369157,Cape Town,200,18.42,-33.93,63.91,62.67,60.01,69.01,1012,82,6.93,260.0,,0,1.0,1899.0,ZA,1581135254,1581184007,,,,,,
22,"[{'id': 701, 'main': 'Mist', 'description': 'mist', 'icon': '50d'}]",stations,2800.0,1581138296,12600,123941,Minab,200,57.08,27.15,62.6,60.91,62.6,62.6,1010,82,6.93,330.0,,0,1.0,7477.0,IR,1581130441,1581170262,,,,,,
23,"[{'id': 804, 'main': 'Clouds', 'description': 'overcast clouds', 'icon': '04n'}]",model,,1581138296,-10800,3833367,Ushuaia,200,-68.3,-54.8,43.0,39.51,43.0,43.0,1023,88,2.15,273.0,,85,,,AR,1581153057,1581207831,1023.0,974.0,,,,
24,"[{'id': 801, 'main': 'Clouds', 'description': 'few clouds', 'icon': '02n'}]",stations,10000.0,1581138296,0,2264557,Ponta do Sol,200,-17.1,32.67,58.3,56.05,55.0,60.8,1028,77,4.7,290.0,,20,1.0,6894.0,PT,1581148706,1581187605,,,,,,
25,"[{'id': 500, 'main': 'Rain', 'description': 'light rain', 'icon': '10d'}]",model,,1581138296,43200,2110227,Butaritari,200,172.79,3.07,84.0,83.55,84.0,84.0,1006,77,20.24,56.0,1.0,96,,,KI,1581100975,1581144185,1006.0,1006.0,,,,
26,"[{'id': 600, 'main': 'Snow', 'description': 'light snow', 'icon': '13n'}, {'id': 701, 'main': 'Mist', 'description': 'mist', 'icon': '50n'}]",stations,4023.0,1581138019,-18000,5122534,Jamestown,200,-79.24,42.1,21.65,11.46,19.4,25.0,1009,92,9.17,300.0,,90,1.0,4588.0,US,1581164568,1581201572,,,,,,
27,"[{'id': 500, 'main': 'Rain', 'description': 'light rain', 'icon': '10n'}]",stations,16093.0,1581138270,-36000,5848280,Kapaa,200,-159.32,22.08,66.18,60.53,64.99,68.0,1010,72,13.87,150.0,,20,1.0,7873.0,US,1581095595,1581136177,,,,0.51,,
28,"[{'id': 500, 'main': 'Rain', 'description': 'light rain', 'icon': '10d'}]",model,,1581138297,10800,159134,Inyonga,200,32.07,-6.72,68.92,72.77,68.92,68.92,1017,92,3.74,86.0,0.69,84,,,TZ,1581134106,1581178602,1017.0,888.0,,,,
29,"[{'id': 804, 'main': 'Clouds', 'description': 'overcast clouds', 'icon': '04n'}]",stations,10000.0,1581138297,10800,546105,Nikolskoye,200,30.79,59.7,26.51,20.53,26.01,27.0,1016,86,2.24,,,90,1.0,8926.0,RU,1581141246,1581172077,,,,,,
30,"[{'id': 803, 'main': 'Clouds', 'description': 'broken clouds', 'icon': '04d'}]",model,,1581138297,18000,1282256,Hithadhoo,200,73.08,-0.6,82.33,85.87,82.33,82.33,1013,77,11.45,7.0,,56,,,MV,1581124666,1581168357,1013.0,1013.0,,,,
31,"[{'id': 800, 'main': 'Clear', 'description': 'clear sky', 'icon': '01d'}]",model,,1581138297,18000,1168312,Pasni,200,63.47,25.26,73.71,69.28,73.71,73.71,1022,31,4.32,102.0,,0,,,PK,1581128758,1581168878,1022.0,1012.0,,,,
32,"[{'id': 801, 'main': 'Clouds', 'description': 'few clouds', 'icon': '02n'}]",stations,10000.0,1581138027,-18000,3670218,San Andres,200,-81.7,12.58,80.6,84.07,80.6,80.6,1015,78,10.29,70.0,,20,1.0,8623.0,CO,1581162676,1581204644,,,,,,
33,"[{'id': 800, 'main': 'Clear', 'description': 'clear sky', 'icon': '01n'}]",model,,1581138297,3600,2447416,Ayorou,200,0.92,14.73,61.57,51.12,61.57,61.57,1016,19,9.51,75.0,,0,,,NE,1581142997,1581184664,1016.0,987.0,,,,
34,"[{'id': 800, 'main': 'Clear', 'description': 'clear sky', 'icon': '01d'}]",model,,1581138298,21600,1185092,Thakurgaon,200,88.47,26.03,77.36,73.4,77.36,77.36,1020,25,2.66,52.0,,0,,,BD,1581122821,1581162815,1020.0,1013.0,,,,
35,"[{'id': 500, 'main': 'Rain', 'description': 'light rain', 'icon': '10d'}]",stations,,1581138298,46800,6201424,Mataura,200,168.86,-46.19,54.0,39.72,54.0,54.0,1022,63,21.99,222.0,0.19,91,3.0,2008959.0,NZ,1581097632,1581149414,,,38.99,,,
36,"[{'id': 600, 'main': 'Snow', 'description': 'light snow', 'icon': '13n'}]",stations,10000.0,1581138298,0,2629833,Husavik,200,-17.34,66.04,37.4,14.52,37.4,37.4,968,69,33.33,197.0,,98,1.0,83.0,IS,1581154988,1581181438,,,,,0.13,
37,"[{'id': 800, 'main': 'Clear', 'description': 'clear sky', 'icon': '01n'}]",model,,1581138298,-14400,3495137,Pedernales,200,-71.74,18.04,64.53,61.56,64.53,64.53,1019,63,6.22,30.0,,0,,,DO,1581160662,1581201878,1019.0,959.0,,,,
38,"[{'id': 500, 'main': 'Rain', 'description': 'light rain', 'icon': '10n'}]",model,,1581138298,-10800,3393692,Itarema,200,-39.92,-2.92,74.16,81.0,74.16,74.16,1010,96,4.16,79.0,0.19,50,,,BR,1581151636,1581195629,1010.0,1007.0,,,,
39,"[{'id': 521, 'main': 'Rain', 'description': 'shower rain', 'icon': '09d'}]",stations,10000.0,1581138298,14400,934479,Grand Gaube,200,57.66,-20.01,80.83,84.4,80.6,81.0,1015,69,6.93,150.0,,40,1.0,2061.0,MU,1581127028,1581173397,,,,,,
40,"[{'id': 803, 'main': 'Clouds', 'description': 'broken clouds', 'icon': '04d'}]",stations,10000.0,1581138298,43200,2122104,Petropavlovsk-Kamchatsky,200,158.65,53.05,28.4,15.33,28.4,28.4,1000,54,13.42,260.0,,84,1.0,8887.0,RU,1581109125,1581142823,,,,,,
41,"[{'id': 800, 'main': 'Clear', 'description': 'clear sky', 'icon': '01d'}]",stations,,1581138299,7200,3366880,Hermanus,200,19.23,-34.42,66.2,66.56,64.0,68.0,1010,84,5.99,86.0,,0,3.0,2006131.0,ZA,1581135010,1581183862,,,11.99,,,
42,"[{'id': 800, 'main': 'Clear', 'description': 'clear sky', 'icon': '01n'}]",stations,16093.0,1581138299,-32400,5554428,Ketchikan,200,-131.65,55.34,36.46,22.14,35.6,37.4,1013,74,18.34,290.0,,1,1.0,7741.0,US,1581092869,1581125621,,,,,,
43,"[{'id': 800, 'main': 'Clear', 'description': 'clear sky', 'icon': '01n'}]",stations,10000.0,1581138299,-10800,3874787,Punta Arenas,200,-70.92,-53.15,49.78,45.81,48.0,51.8,1022,62,2.24,,,0,1.0,8487.0,CL,1581154039,1581208107,,,,,,
44,"[{'id': 802, 'main': 'Clouds', 'description': 'scattered clouds', 'icon': '03d'}]",stations,,1581138299,28800,1806840,Huilong,200,121.66,31.81,48.96,39.24,46.99,52.0,1032,63,12.3,352.0,,30,3.0,2001064.0,CN,1581115345,1581154359,,,,,,
45,"[{'id': 802, 'main': 'Clouds', 'description': 'scattered clouds', 'icon': '03d'}]",stations,7000.0,1581138299,25200,1490256,Talnakh,200,88.4,69.49,-4.0,-20.72,-4.0,-4.0,1000,76,17.9,170.0,,40,1.0,8951.0,RU,1581131616,1581154053,,,,,,
46,"[{'id': 600, 'main': 'Snow', 'description': 'light snow', 'icon': '13d'}]",model,,1581138299,10800,576558,Kidero,200,45.96,42.19,30.7,22.64,30.7,30.7,1004,86,6.78,180.0,,100,,,RU,1581134555,1581171486,1004.0,823.0,,,1.0,
47,"[{'id': 804, 'main': 'Clouds', 'description': 'overcast clouds', 'icon': '04n'}]",model,,1581138299,-18000,3938415,Ilo,200,-71.34,-17.64,72.01,72.84,72.01,72.01,1015,84,9.44,150.0,,94,,,PE,1581158175,1581204172,1015.0,1011.0,,,,
48,"[{'id': 802, 'main': 'Clouds', 'description': 'scattered clouds', 'icon': '03d'}]",model,,1581138231,23400,1309793,Meiktila,200,95.87,20.87,86.09,80.78,86.09,86.09,1015,26,8.28,340.0,,49,,,MM,1581120651,1581161432,1015.0,994.0,,,,
49,"[{'id': 800, 'main': 'Clear', 'description': 'clear sky', 'icon': '01d'}]",model,,1581138300,37800,2063036,Port Lincoln,200,135.87,-34.73,79.59,77.63,79.59,79.59,1015,51,9.19,145.0,,0,,,AU,1581106965,1581155917,1015.0,1009.0,,,,
50,"[{'id': 804, 'main': 'Clouds', 'description': 'overcast clouds', 'icon': '04d'}]",model,,1581138300,39600,2127060,Arman,200,150.17,59.7,2.01,-8.9,2.01,2.01,1024,77,7.92,13.0,,100,,,RU,1581112645,1581143374,1024.0,1022.0,,,,
51,"[{'id': 803, 'main': 'Clouds', 'description': 'broken clouds', 'icon': '04n'}]",model,,1581138300,-14400,3393929,Nhamunda,200,-56.71,-2.19,77.86,82.51,77.86,77.86,1010,70,2.95,238.0,,73,,,BR,1581155714,1581199611,1010.0,1005.0,,,,
52,"[{'id': 803, 'main': 'Clouds', 'description': 'broken clouds', 'icon': '04n'}]",stations,16093.0,1581138300,-36000,5855051,'Ewa Beach,200,-158.01,21.32,67.48,69.03,62.6,71.6,1009,93,6.93,330.0,,75,1.0,7866.0,US,1581095223,1581135920,,,,,,
53,"[{'id': 800, 'main': 'Clear', 'description': 'clear sky', 'icon': '01n'}]",stations,16093.0,1581138300,-28800,5393245,Santa Paula,200,-119.06,34.35,51.4,48.58,46.99,57.99,1018,76,2.57,4.0,,1,1.0,3649.0,US,1581086967,1581125479,,,,,,
54,"[{'id': 804, 'main': 'Clouds', 'description': 'overcast clouds', 'icon': '04n'}]",model,,1581138300,-18000,3697441,El Alto,200,-81.21,-4.27,76.03,78.4,76.03,76.03,1012,67,4.61,147.0,,99,,,PE,1581161459,1581205626,1012.0,973.0,,,,
55,"[{'id': 701, 'main': 'Mist', 'description': 'mist', 'icon': '50n'}]",stations,6437.0,1581138301,-28800,5359864,Isla Vista,200,-119.86,34.41,48.42,46.56,44.01,53.01,1018,93,1.83,86.0,,1,1.0,4558.0,US,1581087165,1581125665,,,,,,
56,"[{'id': 500, 'main': 'Rain', 'description': 'light rain', 'icon': '10n'}]",model,,1581138301,-18000,3696509,Huamachuco,200,-78.07,-7.8,46.81,44.29,46.81,46.81,1016,90,2.01,310.0,0.5,99,,,PE,1581160472,1581205106,1016.0,660.0,,,,
57,"[{'id': 804, 'main': 'Clouds', 'description': 'overcast clouds', 'icon': '04d'}]",model,,1581138301,32400,2014369,Ulety,200,112.48,51.36,16.59,7.83,16.59,16.59,1023,73,5.23,255.0,,93,,,RU,1581119893,1581154217,1023.0,908.0,,,,
58,"[{'id': 802, 'main': 'Clouds', 'description': 'scattered clouds', 'icon': '03n'}]",model,,1581138301,-21600,3601402,Savannah Bight,200,-85.85,16.45,79.56,84.81,79.56,79.56,1015,77,5.79,173.0,,26,,,HN,1581077556,1581118949,1015.0,1015.0,,,,
59,"[{'id': 804, 'main': 'Clouds', 'description': 'overcast clouds', 'icon': '04n'}]",stations,16093.0,1581138180,-18000,5106841,Albany,200,-73.97,42.6,18.01,7.86,14.0,23.0,1004,78,8.05,330.0,,90,1.0,5137.0,US,1581163363,1581200247,,,,,,
60,"[{'id': 600, 'main': 'Snow', 'description': 'light snow', 'icon': '13d'}]",model,,1581138301,25200,1490551,Suzun,200,82.31,53.78,32.38,18.66,32.38,32.38,1009,88,17.34,198.0,,100,,,RU,1581127559,1581161033,1009.0,984.0,,,0.25,
61,"[{'id': 800, 'main': 'Clear', 'description': 'clear sky', 'icon': '01n'}]",stations,16093.0,1581138245,-32400,5880054,Barrow,200,-156.79,71.29,-32.8,-44.37,-32.8,-32.8,1019,95,8.05,250.0,,1,1.0,7649.0,US,1581105613,1581124945,,,,,,
62,"[{'id': 600, 'main': 'Snow', 'description': 'light snow', 'icon': '13n'}]",stations,24140.0,1581138029,-25200,6185377,Yellowknife,200,-114.35,62.46,-5.33,-13.85,-5.8,-5.01,1012,83,3.36,350.0,,90,1.0,1007.0,CA,1581090610,1581119576,,,,,,
63,"[{'id': 800, 'main': 'Clear', 'description': 'clear sky', 'icon': '01d'}]",stations,10000.0,1581138302,37800,2156643,Mount Gambier,200,140.77,-37.83,84.2,79.3,84.2,84.2,1019,48,16.11,120.0,,0,1.0,9560.0,AU,1581105457,1581155073,,,,,,
64,"[{'id': 600, 'main': 'Snow', 'description': 'light snow', 'icon': '13n'}]",stations,10000.0,1581138302,0,2632287,Dalvik,200,-18.53,65.97,37.4,14.52,37.4,37.4,968,69,33.33,197.0,,97,1.0,83.0,IS,1581155241,1581181756,,,,,0.13,
65,"[{'id': 800, 'main': 'Clear', 'description': 'clear sky', 'icon': '01n'}]",model,,1581138302,-10800,3883457,Lebu,200,-73.65,-37.62,49.77,46.13,49.77,49.77,1016,78,3.67,174.0,,0,,,CL,1581156982,1581206475,1016.0,998.0,,,,
66,"[{'id': 802, 'main': 'Clouds', 'description': 'scattered clouds', 'icon': '03n'}]",stations,10000.0,1581138302,3600,2562619,Saint Lawrence,200,14.2,36.06,46.94,43.11,44.6,48.99,1027,81,3.36,300.0,,40,1.0,6861.0,MT,1581141516,1581179770,,,,,,
67,"[{'id': 600, 'main': 'Snow', 'description': 'light snow', 'icon': '13d'}]",model,,1581138302,32400,2020838,Lensk,200,114.93,60.73,18.12,6.49,18.12,18.12,1014,92,11.18,245.0,,100,,,RU,1581121379,1581151556,1014.0,961.0,,,0.56,
68,"[{'id': 800, 'main': 'Clear', 'description': 'clear sky', 'icon': '01n'}]",model,,1581138302,-25200,4021858,Guerrero Negro,200,-114.06,27.98,57.81,54.75,57.81,57.81,1016,84,7.09,309.0,,0,,,MX,1581085203,1581124844,1016.0,1014.0,,,,
69,"[{'id': 803, 'main': 'Clouds', 'description': 'broken clouds', 'icon': '04d'}]",model,,1581138303,3600,2312895,Mbandaka,200,18.26,0.05,77.5,85.15,77.5,77.5,1011,81,1.05,160.0,,71,,,CD,1581137866,1581181472,1011.0,975.0,,,,
70,"[{'id': 802, 'main': 'Clouds', 'description': 'scattered clouds', 'icon': '03n'}]",model,,1581138303,-10800,3443061,Chui,200,-53.46,-33.7,72.75,78.08,72.75,72.75,1012,94,4.92,24.0,,41,,,UY,1581152539,1581201225,1012.0,1012.0,,,,
71,"[{'id': 804, 'main': 'Clouds', 'description': 'overcast clouds', 'icon': '04n'}]",stations,,1581138303,-10800,3423146,Ilulissat,200,-51.1,69.22,6.8,-4.14,6.8,6.8,981,65,8.05,40.0,,100,1.0,165.0,GL,1581164803,1581187829,,,,,,
72,"[{'id': 800, 'main': 'Clear', 'description': 'clear sky', 'icon': '01d'}]",model,,1581138303,19800,1253237,Veraval,200,70.37,20.9,80.19,67.84,80.19,80.19,1018,21,16.89,52.0,,0,,,IN,1581126771,1581167553,1018.0,1010.0,,,,
73,"[{'id': 800, 'main': 'Clear', 'description': 'clear sky', 'icon': '01n'}]",stations,11265.0,1581138074,-25200,3985710,Cabo San Lucas,200,-109.91,22.89,60.19,56.79,55.99,62.6,1017,67,5.82,280.0,,5,1.0,7151.0,MX,1581083802,1581124252,,,,,,
74,"[{'id': 804, 'main': 'Clouds', 'description': 'overcast clouds', 'icon': '04n'}]",model,,1581138303,-28800,5969025,Haines Junction,200,-137.51,60.75,8.69,-0.98,8.69,8.69,1015,97,6.69,192.0,,100,,,CA,1581095617,1581125686,1015.0,871.0,,,,
75,"[{'id': 500, 'main': 'Rain', 'description': 'light rain', 'icon': '10n'}]",stations,5000.0,1581138184,0,2654970,Brae,200,-1.35,60.4,46.4,27.86,46.4,46.4,991,87,29.97,170.0,,60,1.0,1447.0,GB,1581149140,1581179611,,,42.5,,,
76,"[{'id': 804, 'main': 'Clouds', 'description': 'overcast clouds', 'icon': '04n'}]",stations,8000.0,1581138304,0,2377457,Nouadhibou,200,-17.03,20.93,64.4,55.67,64.4,64.4,1019,72,18.34,20.0,,99,1.0,2444.0,MR,1581147743,1581188535,,,,,,
77,"[{'id': 501, 'main': 'Rain', 'description': 'moderate rain', 'icon': '10d'}]",model,,1581138304,39600,2136825,Isangel,200,169.27,-19.55,80.4,81.46,80.4,80.4,1005,87,17.72,99.0,3.69,92,,,VU,1581100266,1581146584,1005.0,995.0,,,,
78,"[{'id': 804, 'main': 'Clouds', 'description': 'overcast clouds', 'icon': '04n'}]",model,,1581138304,-3600,3374210,Sao Filipe,200,-24.5,14.9,73.56,63.9,73.56,73.56,1016,46,18.03,61.0,,100,,,CV,1581149108,1581190755,1016.0,996.0,,,,
79,"[{'id': 803, 'main': 'Clouds', 'description': 'broken clouds', 'icon': '04n'}]",stations,10000.0,1581138297,3600,2729907,Longyearbyen,200,15.64,78.22,24.8,10.02,24.8,24.8,982,79,17.22,210.0,,75,1.0,1663.0,SJ,0,0,,,,,,
80,"[{'id': 521, 'main': 'Rain', 'description': 'shower rain', 'icon': '09d'}]",stations,10000.0,1581138304,14400,934322,Mahebourg,200,57.7,-20.41,80.78,84.33,80.6,81.0,1015,69,6.93,150.0,,40,1.0,2061.0,MU,1581126988,1581173418,,,,,,
81,"[{'id': 500, 'main': 'Rain', 'description': 'light rain', 'icon': '10d'}]",model,,1581138304,28800,1629974,Rantepao,200,119.9,-2.97,76.84,84.31,76.84,76.84,1010,86,2.44,99.0,2.81,100,,,ID,1581113273,1581157276,1010.0,914.0,,,,
82,"[{'id': 804, 'main': 'Clouds', 'description': 'overcast clouds', 'icon': '04n'}]",model,,1581138305,-3600,3372964,Lagoa,200,-27.98,39.05,59.56,46.0,59.56,59.56,1026,78,25.57,238.0,,100,,,PT,1581151937,1581189597,1026.0,1026.0,,,,
83,"[{'id': 801, 'main': 'Clouds', 'description': 'few clouds', 'icon': '02n'}]",model,,1581138305,-10800,3418910,Upernavik,200,-56.15,72.79,-26.52,-39.73,-26.52,-26.52,989,95,11.07,349.0,,24,,,GL,1581169173,1581185883,989.0,989.0,,,,
84,"[{'id': 800, 'main': 'Clear', 'description': 'clear sky', 'icon': '01n'}]",model,,1581138305,3600,2439376,Tahoua,200,5.27,14.89,60.67,47.03,60.67,60.67,1017,24,16.02,71.0,,0,,,NE,1581141964,1581183609,1017.0,967.0,,,,
85,"[{'id': 803, 'main': 'Clouds', 'description': 'broken clouds', 'icon': '04d'}]",model,,1581138305,7200,962367,Richards Bay,200,32.04,-28.78,76.5,79.79,76.5,76.5,1015,86,9.53,246.0,,83,,,ZA,1581132465,1581180258,1015.0,1015.0,,,,
86,"[{'id': 802, 'main': 'Clouds', 'description': 'scattered clouds', 'icon': '03d'}]",stations,,1581138305,7200,964432,Port Alfred,200,26.89,-33.59,66.99,66.65,66.99,66.99,1014,98,11.12,36.0,,47,3.0,2011314.0,ZA,1581133253,1581181942,,,,,,
87,"[{'id': 803, 'main': 'Clouds', 'description': 'broken clouds', 'icon': '04n'}]",stations,10000.0,1581138305,3600,3038333,Arrondissement d'Ajaccio,200,8.92,42.0,39.07,30.54,35.6,42.8,1027,80,9.17,50.0,,56,1.0,6492.0,FR,1581143415,1581180406,,,,,,
88,"[{'id': 804, 'main': 'Clouds', 'description': 'overcast clouds', 'icon': '04d'}]",model,,1581138305,25200,1507390,Dikson,200,80.55,73.51,-0.27,-14.4,-0.27,-0.27,990,94,13.78,180.0,,98,,,RU,1581137540,1581151897,990.0,990.0,,,,
89,"[{'id': 500, 'main': 'Rain', 'description': 'light rain', 'icon': '10d'}]",stations,,1581138305,46800,2206939,Bluff,200,168.33,-46.6,54.0,39.72,54.0,54.0,1022,63,21.99,222.0,0.13,91,3.0,2008959.0,NZ,1581097698,1581149603,,,38.99,,,
90,"[{'id': 311, 'main': 'Drizzle', 'description': 'drizzle rain', 'icon': '09n'}]",stations,4000.0,1581138306,0,2646557,Horsham,200,-0.33,51.06,48.31,42.15,46.0,50.0,1013,100,10.29,200.0,,75,1.0,1413.0,GB,1581146885,1581181376,,,,,,
91,"[{'id': 803, 'main': 'Clouds', 'description': 'broken clouds', 'icon': '04d'}]",stations,10000.0,1581138306,39600,2155415,New Norfolk,200,147.06,-42.78,62.82,55.56,57.99,66.99,1031,55,11.41,110.0,,75,1.0,9545.0,AU,1581103347,1581154164,,,,,,
92,"[{'id': 500, 'main': 'Rain', 'description': 'light rain', 'icon': '10d'}]",model,,1581138306,39600,2178753,Kirakira,200,161.92,-10.45,81.16,81.46,81.16,81.16,1001,80,17.2,267.0,2.69,100,,,SB,1581102684,1581147694,1001.0,980.0,,,,
93,"[{'id': 802, 'main': 'Clouds', 'description': 'scattered clouds', 'icon': '03n'}]",model,,1581138306,-21600,3652764,Puerto Ayora,200,-90.35,-0.74,77.88,82.38,77.88,77.88,1012,86,8.7,191.0,,40,,,EC,1581077477,1581121188,1012.0,1005.0,,,,
94,"[{'id': 804, 'main': 'Clouds', 'description': 'overcast clouds', 'icon': '04n'}]",model,,1581138306,-3600,3372707,Ribeira Grande,200,-28.7,38.52,55.51,45.28,55.51,55.51,1027,83,18.5,231.0,,89,,,PT,1581152054,1581189825,1027.0,1002.0,,,,
95,"[{'id': 804, 'main': 'Clouds', 'description': 'overcast clouds', 'icon': '04d'}]",model,,1581138307,39600,2122574,Ola,200,151.28,59.58,-4.2,-14.76,-4.2,-4.2,1024,70,6.89,36.0,,100,,,RU,1581112346,1581143139,1024.0,1013.0,,,,
96,"[{'id': 803, 'main': 'Clouds', 'description': 'broken clouds', 'icon': '04d'}]",model,,1581138307,18000,1337619,Ugoofaaru,200,73.0,5.67,81.46,87.6,81.46,81.46,1014,74,4.83,57.0,,79,,,MV,1581125095,1581167967,1014.0,1014.0,,,,
97,"[{'id': 600, 'main': 'Snow', 'description': 'light snow', 'icon': '13d'}]",model,,1581138307,36000,2019718,Mukhen,200,136.1,48.1,0.36,-8.77,0.36,0.36,1026,85,4.81,320.0,,100,,,RU,1581113716,1581149056,1026.0,1003.0,,,0.13,
98,"[{'id': 501, 'main': 'Rain', 'description': 'moderate rain', 'icon': '10n'}]",stations,16093.0,1581138256,-36000,5855927,Hilo,200,-155.09,19.73,60.06,58.82,39.99,68.0,1009,82,4.7,160.0,,90,1.0,7881.0,US,1581094405,1581135336,,,,3.3,,
99,"[{'id': 600, 'main': 'Snow', 'description': 'light snow', 'icon': '13n'}]",stations,2816.0,1581138307,-18000,5972291,Havre-Saint-Pierre,200,-63.6,50.23,6.8,-7.82,6.8,6.8,987,84,14.99,20.0,,90,1.0,812.0,CA,1581161918,1581196714,,,24.16,,,
100,"[{'id': 801, 'main': 'Clouds', 'description': 'few clouds', 'icon': '02d'}]",model,,1581138307,7200,371745,Kutum,200,24.67,14.2,59.32,50.36,59.32,59.32,1019,24,7.49,61.0,,16,,,SD,1581137262,1581178999,1019.0,889.0,,,,
101,"[{'id': 804, 'main': 'Clouds', 'description': 'overcast clouds', 'icon': '04d'}]",model,,1581138307,32400,2017155,Saskylakh,200,114.08,71.92,-5.51,-20.34,-5.51,-5.51,1002,94,14.7,154.0,,100,,,RU,1581127534,1581145808,1002.0,991.0,,,,
102,"[{'id': 500, 'main': 'Rain', 'description': 'light rain', 'icon': '10n'}]",model,,1581138308,-14400,6316343,Alta Floresta,200,-56.09,-9.88,69.69,74.05,69.69,69.69,1011,98,5.01,298.0,1.44,100,,,BR,1581155057,1581199970,1011.0,978.0,,,,
103,"[{'id': 802, 'main': 'Clouds', 'description': 'scattered clouds', 'icon': '03n'}]",stations,11265.0,1581138079,-21600,3533462,Acapulco de Juarez,200,-99.89,16.86,77.0,81.16,77.0,77.0,1014,78,5.82,270.0,,40,1.0,7103.0,MX,1581080954,1581122291,,,,,,
104,"[{'id': 804, 'main': 'Clouds', 'description': 'overcast clouds', 'icon': '04d'}]",model,,1581138308,25200,1632694,Pangkalanbuun,200,111.62,-2.68,96.35,102.87,96.35,96.35,1008,43,2.13,272.0,,100,,,ID,1581115279,1581159244,1008.0,1005.0,,,,
105,"[{'id': 803, 'main': 'Clouds', 'description': 'broken clouds', 'icon': '04d'}]",model,,1581138308,3600,3347353,Menongue,200,17.69,-14.66,63.7,64.78,63.7,63.7,1016,93,5.01,257.0,,81,,,AO,1581137015,1581182596,1016.0,856.0,,,,
106,"[{'id': 804, 'main': 'Clouds', 'description': 'overcast clouds', 'icon': '04n'}]",stations,16093.0,1581138308,-18000,4957320,Bar Harbor,200,-68.2,44.39,20.57,8.87,18.0,23.0,992,85,11.41,310.0,,90,1.0,3431.0,US,1581162197,1581198643,,,17.22,,,
107,"[{'id': 802, 'main': 'Clouds', 'description': 'scattered clouds', 'icon': '03d'}]",model,,1581138308,28800,1637001,Biak,200,122.88,-0.91,85.44,88.65,85.44,85.44,1008,72,13.09,112.0,,26,,,ID,1581112693,1581156425,1008.0,1007.0,,,,
108,"[{'id': 803, 'main': 'Clouds', 'description': 'broken clouds', 'icon': '04n'}]",stations,24140.0,1581138308,-25200,5882953,Aklavik,200,-135.01,68.22,-32.8,-41.15,-32.8,-32.8,1020,66,2.24,80.0,,75,1.0,796.0,CA,1581098123,1581121980,,,,,,
109,"[{'id': 802, 'main': 'Clouds', 'description': 'scattered clouds', 'icon': '03d'}]",model,,1581138308,18000,1503726,Kharp,200,65.81,66.8,-8.99,-22.68,-8.99,-8.99,1005,94,12.5,322.0,,38,,,RU,1581135446,1581161067,1005.0,951.0,,,,
110,"[{'id': 804, 'main': 'Clouds', 'description': 'overcast clouds', 'icon': '04n'}]",stations,16093.0,1581138309,-28800,5563839,Fortuna,200,-124.16,40.6,49.66,45.23,46.99,51.8,1024,93,6.93,330.0,,90,1.0,4127.0,US,1581088837,1581126057,,,,,,
111,"[{'id': 601, 'main': 'Snow', 'description': 'snow', 'icon': '13d'}]",model,,1581138309,39600,2121385,Severo-Kuril'sk,200,156.12,50.68,20.7,7.32,20.7,20.7,999,92,14.65,359.0,,100,,,RU,1581109318,1581143844,999.0,960.0,,,2.06,
112,"[{'id': 701, 'main': 'Mist', 'description': 'mist', 'icon': '50n'}]",stations,1207.0,1581138236,-28800,5367788,Lompoc,200,-120.46,34.64,46.98,43.0,43.0,51.8,1018,100,5.82,130.0,,90,1.0,6155.0,US,1581087331,1581125788,,,,,,
113,"[{'id': 803, 'main': 'Clouds', 'description': 'broken clouds', 'icon': '04n'}]",stations,,1581138309,3600,3159954,Bronnoysund,200,12.2,65.46,34.41,29.03,33.01,35.6,1006,93,3.36,260.0,,66,1.0,1611.0,NO,1581147659,1581174588,,,,,,
114,"[{'id': 800, 'main': 'Clear', 'description': 'clear sky', 'icon': '01d'}]",stations,10000.0,1581138309,18000,1513491,Yangi Marg`ilon,200,71.72,40.43,43.83,33.37,42.8,44.6,1020,33,9.17,150.0,,0,1.0,9014.0,UZ,1581128177,1581165499,,,,,,
115,"[{'id': 801, 'main': 'Clouds', 'description': 'few clouds', 'icon': '02d'}]",stations,10000.0,1581138309,32400,2112309,Katsuura,200,140.3,35.13,53.87,42.42,50.0,57.99,1010,35,12.75,40.0,,20,1.0,8052.0,JP,1581111181,1581149575,,,,,,
116,"[{'id': 804, 'main': 'Clouds', 'description': 'overcast clouds', 'icon': '04n'}]",model,,1581138309,43200,2123814,Leningradskiy,200,178.42,69.38,-18.42,-36.9,-18.42,-18.42,1032,93,20.65,292.0,,100,,,RU,1581110008,1581132450,1032.0,1031.0,,,,
117,"[{'id': 500, 'main': 'Rain', 'description': 'light rain', 'icon': '10n'}]",model,,1581138310,-10800,3400541,Exu,200,-39.72,-7.51,66.99,67.6,66.99,66.99,1012,95,8.7,23.0,0.13,89,,,BR,1581151286,1581195883,1012.0,923.0,,,,
118,"[{'id': 803, 'main': 'Clouds', 'description': 'broken clouds', 'icon': '04n'}]",stations,10000.0,1581138310,-18000,3932145,Pisco,200,-76.22,-13.7,73.2,72.9,73.0,73.4,1012,73,9.17,210.0,,75,1.0,8691.0,PE,1581159627,1581205063,,,,,,
119,"[{'id': 800, 'main': 'Clear', 'description': 'clear sky', 'icon': '01d'}]",model,,1581138310,19800,1262403,Murud,200,72.97,18.33,85.57,81.88,85.57,85.57,1016,28,6.08,60.0,,4,,,IN,1581125961,1581167115,1016.0,1004.0,,,,
120,"[{'id': 803, 'main': 'Clouds', 'description': 'broken clouds', 'icon': '04n'}]",model,,1581138310,-18000,3939761,Hualmay,200,-77.61,-11.1,69.58,72.84,69.58,69.58,1016,83,2.98,221.0,,83,,,PE,1581160140,1581205217,1016.0,962.0,,,,
121,"[{'id': 802, 'main': 'Clouds', 'description': 'scattered clouds', 'icon': '03n'}]",stations,10000.0,1581138310,0,2246901,Oussouye,200,-16.55,12.48,68.0,64.38,68.0,68.0,1012,45,4.7,60.0,,31,1.0,2411.0,SN,1581147036,1581189011,,,,,,
122,"[{'id': 800, 'main': 'Clear', 'description': 'clear sky', 'icon': '01n'}]",stations,16093.0,1581138310,-18000,4231997,Avera,200,-82.53,33.19,35.01,29.68,30.2,39.2,1021,92,3.36,310.0,,1,1.0,4414.0,US,1581164447,1581203272,,,,,,
123,"[{'id': 800, 'main': 'Clear', 'description': 'clear sky', 'icon': '01n'}]",stations,16093.0,1581138028,-28800,5392593,San Ramon,200,-121.98,37.78,49.75,46.94,46.0,53.6,1020,87,3.36,,,5,1.0,5903.0,US,1581088009,1581125839,,,,,,
124,"[{'id': 800, 'main': 'Clear', 'description': 'clear sky', 'icon': '01d'}]",model,,1581138311,39600,2121025,Srednekolymsk,200,153.68,67.45,-38.83,-47.69,-38.83,-38.83,1036,96,3.15,61.0,,4,,,RU,1581114751,1581139582,1036.0,1030.0,,,,
125,"[{'id': 500, 'main': 'Rain', 'description': 'light rain', 'icon': '10n'}, {'id': 701, 'main': 'Mist', 'description': 'mist', 'icon': '50n'}]",stations,4023.0,1581138311,-12600,6167817,Torbay,200,-52.73,47.67,38.97,24.15,33.8,46.0,982,99,21.92,190.0,,90,1.0,998.0,CA,1581158927,1581194488,,,36.91,,,
126,"[{'id': 804, 'main': 'Clouds', 'description': 'overcast clouds', 'icon': '04d'}]",model,,1581138311,25200,1214026,Sabang,200,95.32,5.89,82.58,83.89,82.58,82.58,1012,76,15.26,93.0,,99,,,ID,1581119753,1581162595,1012.0,1011.0,,,,
127,"[{'id': 801, 'main': 'Clouds', 'description': 'few clouds', 'icon': '02d'}]",model,,1581138311,39600,2137773,Vao,200,167.48,-22.67,80.02,79.7,80.02,80.02,1007,81,17.58,94.0,,18,,,NC,1581100454,1581147255,1007.0,1007.0,,,,
128,"[{'id': 803, 'main': 'Clouds', 'description': 'broken clouds', 'icon': '04n'}]",model,,1581138311,-21600,3985168,San Patricio,200,-104.7,19.22,74.8,76.66,74.8,74.8,1015,76,7.45,62.0,,70,,,MX,1581082278,1581123276,1015.0,1013.0,,,,
129,"[{'id': 500, 'main': 'Rain', 'description': 'light rain', 'icon': '10n'}]",model,,1581138312,3600,778707,Mehamn,200,27.85,71.04,36.86,19.42,36.86,36.86,997,96,25.7,250.0,2.06,100,,,NO,1581147300,1581167434,997.0,980.0,,,,
130,"[{'id': 802, 'main': 'Clouds', 'description': 'scattered clouds', 'icon': '03n'}]",model,,1581138312,0,2276492,Harper,200,-7.72,4.38,74.8,83.07,74.8,74.8,1012,96,2.28,289.0,,47,,,LR,1581144383,1581187426,1012.0,1009.0,,,,
131,"[{'id': 800, 'main': 'Clear', 'description': 'clear sky', 'icon': '01n'}]",stations,16093.0,1581138312,-25200,4000490,La Reforma,200,-108.05,25.08,56.23,52.66,53.01,62.6,1014,72,5.26,341.0,,5,1.0,7117.0,MX,1581083526,1581123636,,,,,,
132,"[{'id': 804, 'main': 'Clouds', 'description': 'overcast clouds', 'icon': '04d'}]",model,,1581138313,28800,1803331,Linxia,200,103.21,35.6,28.02,20.68,28.02,28.02,1028,67,3.91,56.0,,100,,,CN,1581120123,1581158437,1028.0,772.0,,,,
133,"[{'id': 804, 'main': 'Clouds', 'description': 'overcast clouds', 'icon': '04d'}]",model,,1581138313,21600,1519275,Shar,200,81.05,49.59,29.12,10.22,29.12,29.12,1020,72,24.9,152.0,,100,,,KZ,1581127140,1581162057,1020.0,972.0,,,,
134,"[{'id': 501, 'main': 'Rain', 'description': 'moderate rain', 'icon': '10n'}]",model,,1581138313,-10800,3402648,Carutapera,200,-46.02,-1.2,78.94,79.57,78.94,78.94,1010,87,16.98,41.0,6.19,100,,,BR,1581153212,1581196981,1010.0,1010.0,,,,
135,"[{'id': 800, 'main': 'Clear', 'description': 'clear sky', 'icon': '01n'}]",model,,1581138314,0,2374583,Bubaque,200,-15.83,11.28,78.24,72.93,78.24,78.24,1011,46,12.59,35.0,,0,,,GW,1581146783,1581188919,1011.0,1011.0,,,,
136,"[{'id': 521, 'main': 'Rain', 'description': 'shower rain', 'icon': '09d'}]",stations,10000.0,1581138314,14400,1106677,Bambous Virieux,200,57.76,-20.34,80.8,84.34,80.6,81.0,1015,69,6.93,150.0,,40,1.0,2061.0,MU,1581126979,1581173398,,,,,,
137,"[{'id': 804, 'main': 'Clouds', 'description': 'overcast clouds', 'icon': '04d'}]",model,,1581138314,18000,514706,Osa,200,55.46,57.28,4.86,-6.09,4.86,4.86,1008,94,8.52,355.0,,100,,,RU,1581134729,1581166752,1008.0,987.0,,,,
138,"[{'id': 800, 'main': 'Clear', 'description': 'clear sky', 'icon': '01n'}]",stations,16093.0,1581138047,-18000,4944903,Nantucket,200,-70.1,41.28,30.69,17.98,28.0,33.01,999,67,13.87,280.0,,1,1.0,4454.0,US,1581162282,1581199470,,,21.92,,,
139,"[{'id': 500, 'main': 'Rain', 'description': 'light rain', 'icon': '10n'}]",model,,1581138315,-14400,3901501,Villazon,200,-65.59,-22.09,51.69,45.64,51.69,51.69,1018,76,8.41,82.0,1.56,98,,,BO,1581156460,1581203127,1018.0,680.0,,,,
140,"[{'id': 804, 'main': 'Clouds', 'description': 'overcast clouds', 'icon': '04d'}]",stations,10000.0,1581138233,28800,2071860,Esperance,200,121.9,-33.87,102.2,91.92,102.2,102.2,1008,16,17.22,10.0,,98,1.0,9525.0,AU,1581110407,1581159181,,,,,,
141,"[{'id': 801, 'main': 'Clouds', 'description': 'few clouds', 'icon': '02n'}]",stations,24140.0,1581138024,-18000,5983720,Iqaluit,200,-68.51,63.75,-23.4,-35.61,-23.8,-23.01,1001,61,9.17,310.0,,20,1.0,797.0,CA,1581166305,1581194684,,,,,,
142,"[{'id': 803, 'main': 'Clouds', 'description': 'broken clouds', 'icon': '04n'}]",stations,14484.0,1581138316,-21600,3520994,Puerto Escondido,200,-97.07,15.85,80.6,90.09,80.6,80.6,1015,88,3.36,110.0,,75,1.0,7157.0,MX,1581080206,1581121685,,,,,,
143,"[{'id': 500, 'main': 'Rain', 'description': 'light rain', 'icon': '10n'}]",model,,1581138316,3600,779261,Kjollefjord,200,27.35,70.95,37.54,20.95,37.54,37.54,997,96,24.4,244.0,2.56,100,,,NO,1581147341,1581167633,997.0,982.0,,,,
144,"[{'id': 804, 'main': 'Clouds', 'description': 'overcast clouds', 'icon': '04n'}]",model,,1581138316,-14400,3901903,Uyuni,200,-66.83,-20.46,54.03,44.73,54.03,54.03,1018,56,12.15,105.0,,90,,,BO,1581156883,1581203300,1018.0,658.0,,,,
145,"[{'id': 804, 'main': 'Clouds', 'description': 'overcast clouds', 'icon': '04n'}]",model,,1581138316,-10800,3395458,Maragogi,200,-35.22,-9.01,81.18,84.38,81.18,81.18,1012,73,9.42,46.0,,93,,,BR,1581150106,1581194904,1012.0,1011.0,,,,
146,"[{'id': 500, 'main': 'Rain', 'description': 'light rain', 'icon': '10d'}]",model,,1581138316,28800,1688696,San Policarpo,200,125.51,12.18,80.4,87.3,80.4,80.4,1012,84,6.26,74.0,1.19,41,,,PH,1581112927,1581154929,1012.0,1011.0,,,,
147,"[{'id': 803, 'main': 'Clouds', 'description': 'broken clouds', 'icon': '04n'}]",stations,16093.0,1581138317,-32400,5861897,Fairbanks,200,-147.72,64.84,7.48,0.34,5.0,9.0,1009,92,1.99,125.0,,75,1.0,7684.0,US,1581099491,1581126713,,,,,,
148,"[{'id': 800, 'main': 'Clear', 'description': 'clear sky', 'icon': '01n'}]",stations,,1581138317,-10800,3420846,Qaqortoq,200,-46.03,60.72,19.4,4.98,19.4,19.4,964,57,14.99,250.0,,0,1.0,47.0,GL,1581159936,1581190263,,,,,,
149,"[{'id': 521, 'main': 'Rain', 'description': 'shower rain', 'icon': '09d'}]",stations,10000.0,1581138317,14400,1106643,Quatre Cocos,200,57.76,-20.21,80.82,84.38,80.6,81.0,1015,69,6.93,150.0,,40,1.0,2061.0,MU,1581126989,1581173388,,,,,,
150,"[{'id': 803, 'main': 'Clouds', 'description': 'broken clouds', 'icon': '04n'}]",stations,10000.0,1581138212,-21600,3600327,Villanueva,200,-88.0,15.32,77.36,84.22,75.99,78.8,1015,88,4.7,120.0,,75,1.0,7097.0,HN,1581077992,1581119545,,,,,,
151,"[{'id': 802, 'main': 'Clouds', 'description': 'scattered clouds', 'icon': '03n'}]",stations,10000.0,1581138317,-10800,3445026,Vila Velha,200,-40.29,-20.33,75.09,83.19,75.0,75.2,1014,94,2.24,340.0,,40,1.0,8474.0,BR,1581150521,1581196922,,,,,,
152,"[{'id': 600, 'main': 'Snow', 'description': 'light snow', 'icon': '13n'}]",stations,,1581138318,-18000,5962442,Goderich,200,-81.72,43.75,20.55,8.73,14.0,26.01,1010,85,11.63,303.0,,100,3.0,2008803.0,CA,1581165360,1581201970,,,,,0.19,
153,"[{'id': 803, 'main': 'Clouds', 'description': 'broken clouds', 'icon': '04d'}]",model,,1581138318,36000,2084442,Vanimo,200,141.3,-2.67,81.99,84.34,81.99,81.99,1006,80,14.38,313.0,,84,,,PG,1581108156,1581152120,1006.0,1007.0,,,,
154,"[{'id': 521, 'main': 'Rain', 'description': 'shower rain', 'icon': '09n'}]",stations,10000.0,1581138318,0,3416888,Grindavik,200,-22.43,63.84,37.4,20.73,37.4,37.4,963,64,21.92,140.0,,75,1.0,90.0,IS,1581155303,1581183567,,,,,,
155,"[{'id': 802, 'main': 'Clouds', 'description': 'scattered clouds', 'icon': '03n'}]",model,,1581138318,39600,2126199,Cherskiy,200,161.3,68.75,-35.23,-42.88,-35.23,-35.23,1036,91,1.03,14.0,,45,,,RU,1581113687,1581136988,1036.0,1035.0,,,,
156,"[{'id': 803, 'main': 'Clouds', 'description': 'broken clouds', 'icon': '04d'}]",stations,10000.0,1581138318,28800,2074865,Carnarvon,200,113.63,-24.87,82.4,84.85,82.4,82.4,1007,78,13.87,210.0,,68,1.0,9505.0,AU,1581113206,1581160352,,,,,,
157,"[{'id': 803, 'main': 'Clouds', 'description': 'broken clouds', 'icon': '04d'}]",model,,1581138318,10800,64435,Berbera,200,45.01,10.44,76.46,78.85,76.46,76.46,1019,67,4.9,81.0,,54,,,SO,1581132127,1581174370,1019.0,1017.0,,,,
158,"[{'id': 721, 'main': 'Haze', 'description': 'haze', 'icon': '50d'}]",stations,4500.0,1581138318,19800,1259385,Port Blair,200,92.75,11.67,84.2,87.48,84.2,84.2,1016,58,5.82,60.0,,0,1.0,9215.0,IN,1581120754,1581162827,,,,,,
159,"[{'id': 802, 'main': 'Clouds', 'description': 'scattered clouds', 'icon': '03n'}]",stations,16093.0,1581138024,-18000,4513583,Hamilton,200,-84.53,39.18,28.51,22.12,24.8,30.99,1018,86,3.36,230.0,,40,1.0,4476.0,US,1581165513,1581203166,,,,,,
160,"[{'id': 800, 'main': 'Clear', 'description': 'clear sky', 'icon': '01d'}]",model,,1581138319,7200,3354077,Opuwo,200,13.84,-18.06,67.57,66.11,67.57,67.57,1015,69,6.53,250.0,,10,,,NA,1581137694,1581183765,1015.0,875.0,,,,
161,"[{'id': 804, 'main': 'Clouds', 'description': 'overcast clouds', 'icon': '04n'}]",model,,1581138319,-10800,3466704,Castro,200,-50.01,-24.79,63.39,64.94,63.39,63.39,1013,97,4.79,77.0,,86,,,BR,1581152505,1581199604,1013.0,904.0,,,,
162,"[{'id': 801, 'main': 'Clouds', 'description': 'few clouds', 'icon': '02d'}]",stations,6000.0,1581138319,19800,1267390,Kavaratti,200,72.64,10.57,82.4,87.1,82.4,82.4,1015,65,4.7,360.0,,20,1.0,9701.0,IN,1581125505,1581167729,,,,,,
163,"[{'id': 801, 'main': 'Clouds', 'description': 'few clouds', 'icon': '02n'}]",stations,10000.0,1581138319,-10800,3391889,Pitimbu,200,-34.81,-7.47,78.8,86.86,78.8,78.8,1012,83,2.24,150.0,,20,1.0,8391.0,BR,1581150110,1581194702,,,,,,
164,"[{'id': 802, 'main': 'Clouds', 'description': 'scattered clouds', 'icon': '03n'}]",stations,12874.0,1581138319,-18000,5110365,Broome,200,-75.83,42.25,19.42,5.45,16.0,23.0,1005,78,14.99,310.0,,40,1.0,3429.0,US,1581163768,1581200735,,,31.09,,,
165,"[{'id': 804, 'main': 'Clouds', 'description': 'overcast clouds', 'icon': '04d'}]",model,,1581138319,19800,1253595,Vadamadurai,200,78.08,10.47,82.65,84.54,82.65,82.65,1015,53,5.1,105.0,,85,,,IN,1581124193,1581166430,1015.0,981.0,,,,
166,"[{'id': 800, 'main': 'Clear', 'description': 'clear sky', 'icon': '01d'}]",stations,,1581138320,25200,1611424,Chai Badan,200,101.13,15.2,94.64,97.02,91.0,98.01,1022,46,9.86,75.0,,10,3.0,2021467.0,TH,1581118984,1581160574,,,,,,
167,"[{'id': 803, 'main': 'Clouds', 'description': 'broken clouds', 'icon': '04d'}]",stations,9000.0,1581138320,7200,964420,Port Elizabeth,200,25.57,-33.92,66.2,71.38,66.2,66.2,1015,100,1.12,,,75,1.0,1973.0,ZA,1581133537,1581182291,,,,,,
168,"[{'id': 521, 'main': 'Rain', 'description': 'shower rain', 'icon': '09d'}]",stations,10000.0,1581138320,14400,934649,Cap Malheureux,200,57.61,-19.98,80.83,84.4,80.6,81.0,1015,69,6.93,150.0,,40,1.0,2061.0,MU,1581127042,1581173407,,,,,,
169,"[{'id': 500, 'main': 'Rain', 'description': 'light rain', 'icon': '10d'}]",model,,1581138320,28800,1791779,Wanning,200,110.4,18.8,70.36,68.29,70.36,70.36,1020,81,12.48,49.0,0.44,100,,,CN,1581117014,1581158095,1020.0,1019.0,,,,
170,"[{'id': 800, 'main': 'Clear', 'description': 'clear sky', 'icon': '01d'}]",model,,1581138320,32400,2015306,Tiksi,200,128.87,71.69,-21.98,-30.66,-21.98,-21.98,1018,70,3.0,184.0,,0,,,RU,1581123765,1581142478,1018.0,1001.0,,,,
171,"[{'id': 800, 'main': 'Clear', 'description': 'clear sky', 'icon': '01n'}]",model,,1581138026,-18000,3576994,Cockburn Town,200,-71.14,21.46,78.73,77.11,78.73,78.73,1019,84,19.71,125.0,,0,,,TC,1581160764,1581201488,1019.0,1019.0,,,,
172,"[{'id': 802, 'main': 'Clouds', 'description': 'scattered clouds', 'icon': '03d'}]",model,,1581138321,28800,1726449,Basco,200,121.97,20.45,71.58,60.46,71.58,71.58,1019,78,28.66,45.0,,25,,,PH,1581114358,1581155197,1019.0,1018.0,,,,
173,"[{'id': 804, 'main': 'Clouds', 'description': 'overcast clouds', 'icon': '04n'}]",stations,16093.0,1581138303,-18000,4260977,Marion,200,-86.16,39.77,28.85,21.88,26.6,30.99,1016,100,5.26,203.0,,90,1.0,4965.0,US,1581165967,1581203494,,,,,,
174,"[{'id': 802, 'main': 'Clouds', 'description': 'scattered clouds', 'icon': '03n'}]",stations,10000.0,1581138321,-10800,3894426,Coyhaique,200,-72.07,-45.58,48.2,42.6,48.2,48.2,1025,81,6.93,20.0,,41,1.0,8491.0,CL,1581155606,1581207091,,,,,,
175,"[{'id': 803, 'main': 'Clouds', 'description': 'broken clouds', 'icon': '04d'}]",stations,10000.0,1581138321,7200,1045114,Inhambane,200,35.38,-23.86,80.6,88.38,80.6,80.6,1014,94,8.63,4.0,,75,1.0,2200.0,MZ,1581132077,1581179043,,,,,,
176,"[{'id': 803, 'main': 'Clouds', 'description': 'broken clouds', 'icon': '04d'}]",model,,1581138321,32400,1626542,Sorong,200,131.25,-0.88,87.75,92.34,87.75,87.75,1008,59,6.87,1.0,,72,,,ID,1581110686,1581154414,1008.0,997.0,,,,
177,"[{'id': 721, 'main': 'Haze', 'description': 'haze', 'icon': '50d'}]",stations,2000.0,1581138322,19800,1259552,Pipri,200,75.53,19.8,68.0,68.13,68.0,68.0,1019,72,4.7,20.0,,40,1.0,9057.0,IN,1581125453,1581166394,,,,,,
178,"[{'id': 800, 'main': 'Clear', 'description': 'clear sky', 'icon': '01d'}]",stations,10000.0,1581138322,12600,1160939,Iranshahr,200,60.68,27.2,57.2,49.98,57.2,57.2,1022,41,6.93,10.0,,0,1.0,7518.0,IR,1581129581,1581169394,,,,,,
179,"[{'id': 802, 'main': 'Clouds', 'description': 'scattered clouds', 'icon': '03n'}]",stations,10000.0,1581138322,46800,4032243,Vaini,200,-175.2,-21.2,84.2,89.31,84.2,84.2,1010,79,11.41,110.0,,40,1.0,7285.0,TO,1581182846,1581229356,,,,,,
180,"[{'id': 804, 'main': 'Clouds', 'description': 'overcast clouds', 'icon': '04d'}]",model,,1581138322,25200,1503153,Klyuchi,200,79.17,52.27,35.24,18.21,35.24,35.24,1007,81,23.38,183.0,,100,,,RU,1581128035,1581162065,1007.0,991.0,,,,
181,"[{'id': 803, 'main': 'Clouds', 'description': 'broken clouds', 'icon': '04n'}]",model,,1581138322,-18000,3928993,San Vicente de Canete,200,-76.38,-13.08,71.6,75.07,71.6,71.6,1015,83,4.12,286.0,,84,,,PE,1581159709,1581205058,1015.0,1001.0,,,,
182,"[{'id': 803, 'main': 'Clouds', 'description': 'broken clouds', 'icon': '04d'}]",model,,1581138322,25200,2022572,Khatanga,200,102.5,71.97,-2.54,-14.39,-2.54,-2.54,1000,97,9.62,232.0,,61,,,RU,1581130353,1581148548,1000.0,997.0,,,,
183,"[{'id': 803, 'main': 'Clouds', 'description': 'broken clouds', 'icon': '04n'}]",stations,10000.0,1581138322,-14400,3664980,Boa Vista,200,-60.67,2.82,78.8,79.21,78.8,78.8,1012,61,8.05,90.0,,74,1.0,8340.0,BR,1581156989,1581200237,,,,,,
184,"[{'id': 800, 'main': 'Clear', 'description': 'clear sky', 'icon': '01n'}]",stations,16093.0,1581138323,-18000,4588165,Mount Pleasant,200,-79.86,32.79,42.62,33.96,39.2,45.0,1021,56,8.05,300.0,,1,1.0,4761.0,US,1581163770,1581202667,,,,,,
185,"[{'id': 501, 'main': 'Rain', 'description': 'moderate rain', 'icon': '10d'}]",model,,1581138323,7200,878549,Zvishavane,200,30.07,-20.33,65.64,67.82,65.64,65.64,1015,94,4.68,3.0,5.19,100,,,ZW,1581133628,1581180041,1015.0,900.0,,,,
186,"[{'id': 803, 'main': 'Clouds', 'description': 'broken clouds', 'icon': '04d'}]",model,,1581138323,25200,1631637,Pemangkat,200,108.97,1.17,85.86,88.81,85.86,85.86,1010,64,10.38,327.0,,63,,,ID,1581116168,1581159627,1010.0,1008.0,,,,
187,"[{'id': 800, 'main': 'Clear', 'description': 'clear sky', 'icon': '01d'}]",stations,10000.0,1581138323,14400,935215,Saint-Philippe,200,55.77,-21.36,77.99,73.6,70.0,82.4,1015,58,14.99,110.0,,9,1.0,2127.0,RE,1581127378,1581173954,,,,,,
188,"[{'id': 804, 'main': 'Clouds', 'description': 'overcast clouds', 'icon': '04d'}]",stations,10000.0,1581138323,36000,2174444,Bowen,200,148.23,-20.02,90.95,99.21,89.6,91.99,1005,66,6.93,50.0,,90,1.0,9503.0,AU,1581105282,1581151668,,,,,,
189,"[{'id': 620, 'main': 'Snow', 'description': 'light shower snow', 'icon': '13d'}]",stations,6000.0,1581138323,10800,751335,Bafra,200,35.91,41.57,33.8,20.21,33.8,33.8,1016,69,16.11,280.0,,75,1.0,7017.0,TR,1581136893,1581173972,,,,,,
190,"[{'id': 800, 'main': 'Clear', 'description': 'clear sky', 'icon': '01n'}]",stations,14484.0,1581138323,-18000,5924351,Clyde River,200,-68.59,70.47,-32.8,-42.02,-32.8,-32.8,998,66,3.78,329.0,,1,1.0,776.0,CA,1581169883,1581191144,,,,,,
191,"[{'id': 500, 'main': 'Rain', 'description': 'light rain', 'icon': '10d'}]",model,,1581138324,7200,912764,Kasama,200,31.18,-10.21,68.9,73.67,68.9,68.9,1017,87,0.81,53.0,0.19,100,,,ZM,1581134085,1581179051,1017.0,866.0,,,,
192,"[{'id': 800, 'main': 'Clear', 'description': 'clear sky', 'icon': '01d'}]",model,,1581138324,39600,2126123,Chokurdakh,200,147.92,70.63,-35.43,-43.69,-35.43,-35.43,1033,97,2.15,169.0,,7,,,RU,1581118247,1581138851,1033.0,1031.0,,,,
193,"[{'id': 801, 'main': 'Clouds', 'description': 'few clouds', 'icon': '02n'}]",stations,10000.0,1581138324,46800,4032420,Neiafu,200,-173.98,-18.65,84.2,88.75,84.2,84.2,1008,74,10.29,90.0,,20,1.0,7292.0,TO,1581182744,1581228873,,,,,,
194,"[{'id': 801, 'main': 'Clouds', 'description': 'few clouds', 'icon': '02d'}]",stations,9000.0,1581138324,12600,124291,Mehran,200,46.16,33.12,42.8,35.58,42.8,42.8,1016,70,6.93,110.0,,20,1.0,7458.0,IR,1581133573,1581172372,,,,,,
195,"[{'id': 501, 'main': 'Rain', 'description': 'moderate rain', 'icon': '10d'}]",model,,1581138324,39600,2109528,Buala,200,159.59,-8.14,83.44,87.28,83.44,83.44,1003,79,12.86,263.0,4.31,88,,,SB,1581103401,1581148095,1003.0,994.0,,,,
196,"[{'id': 802, 'main': 'Clouds', 'description': 'scattered clouds', 'icon': '03d'}]",stations,8000.0,1581138324,10800,105298,Jizan,200,42.67,17.33,77.0,82.98,77.0,77.0,1015,83,4.25,273.0,,40,1.0,7407.0,SA,1581133160,1581174460,,,,,,
197,"[{'id': 801, 'main': 'Clouds', 'description': 'few clouds', 'icon': '02d'}]",stations,10000.0,1581138140,10800,64013,Bosaso,200,49.18,11.28,75.2,74.61,75.2,75.2,1017,78,12.75,60.0,,20,1.0,2495.0,SO,1581131183,1581173313,,,,,,
198,"[{'id': 500, 'main': 'Rain', 'description': 'light rain', 'icon': '10n'}]",model,,1581138236,-10800,3835869,Santiago del Estero,200,-64.26,-27.8,74.17,78.66,74.17,74.17,1011,88,5.93,197.0,1.88,17,,,AR,1581155675,1581203274,1011.0,977.0,,,,
199,"[{'id': 500, 'main': 'Rain', 'description': 'light rain', 'icon': '10n'}]",model,,1581138325,-10800,3466980,Caravelas,200,-39.25,-17.71,79.47,84.42,79.47,79.47,1012,75,5.53,8.0,0.44,100,,,BR,1581150466,1581196478,1012.0,1012.0,,,,
200,"[{'id': 804, 'main': 'Clouds', 'description': 'overcast clouds', 'icon': '04n'}]",model,,1581138325,-36000,4034551,Faanui,200,-151.75,-16.48,82.11,81.07,82.11,82.11,1013,81,20.96,92.0,,100,,,PF,1581091136,1581137003,1013.0,1012.0,,,,
201,"[{'id': 500, 'main': 'Rain', 'description': 'light rain', 'icon': '10d'}]",stations,,1581138075,46800,2191562,Dunedin,200,170.5,-45.87,55.99,53.46,55.99,55.99,1003,70,3.0,270.0,,77,3.0,2031989.0,NZ,1581097286,1581148973,,,7.0,0.25,,
202,"[{'id': 500, 'main': 'Rain', 'description': 'light rain', 'icon': '10d'}]",model,,1581138325,25200,1649150,Bengkulu,200,102.27,-3.8,74.08,79.52,74.08,74.08,1012,93,5.68,334.0,2.31,100,,,ID,1581117450,1581161562,1012.0,994.0,,,,
203,"[{'id': 803, 'main': 'Clouds', 'description': 'broken clouds', 'icon': '04n'}]",stations,10000.0,1581138325,-36000,4033557,Tautira,200,-149.15,-17.73,86.0,87.08,86.0,86.0,1013,51,8.05,100.0,,75,1.0,7318.0,PF,1581090419,1581136471,,,,,,
204,"[{'id': 800, 'main': 'Clear', 'description': 'clear sky', 'icon': '01d'}]",model,,1581138326,10800,53372,Oodweyne,200,45.06,9.41,78.17,63.84,78.17,78.17,1019,19,19.24,40.0,,0,,,SO,1581132046,1581174427,1019.0,890.0,,,,
205,"[{'id': 500, 'main': 'Rain', 'description': 'light rain', 'icon': '10n'}]",stations,,1581138184,-10800,3424607,Tasiilaq,200,-37.64,65.61,35.6,8.19,35.6,35.6,949,74,41.38,60.0,,100,1.0,81.0,GL,1581159656,1581186515,,,70.24,,,
206,"[{'id': 804, 'main': 'Clouds', 'description': 'overcast clouds', 'icon': '04n'}]",stations,24140.0,1581138154,-28800,6180550,Whitehorse,200,-135.05,60.72,16.86,8.02,14.0,17.6,1007,85,5.82,180.0,,90,1.0,983.0,CA,1581095019,1581125103,,,,,,
207,"[{'id': 802, 'main': 'Clouds', 'description': 'scattered clouds', 'icon': '03d'}]",model,,1581138326,19800,1274899,Chakia,200,85.05,26.42,70.52,64.99,70.52,70.52,1021,33,5.86,285.0,,30,,,IN,1581123672,1581163605,1021.0,1013.0,,,,
208,"[{'id': 803, 'main': 'Clouds', 'description': 'broken clouds', 'icon': '04d'}]",stations,10000.0,1581138326,32400,1863997,Fukuecho,200,128.84,32.69,46.4,34.65,46.4,46.4,1023,61,14.99,350.0,,75,1.0,7986.0,JP,1581113702,1581152555,,,,,,
209,"[{'id': 803, 'main': 'Clouds', 'description': 'broken clouds', 'icon': '04n'}]",model,,1581138326,-18000,3697838,Contamana,200,-75.02,-7.33,71.92,78.76,71.92,71.92,1011,95,1.79,2.0,,54,,,PE,1581159772,1581204342,1011.0,994.0,,,,
210,"[{'id': 500, 'main': 'Rain', 'description': 'light rain', 'icon': '10n'}]",model,,1581138327,3600,780687,Berlevag,200,29.09,70.86,38.62,21.18,38.62,38.62,997,92,25.9,242.0,0.81,100,,,NO,1581146848,1581167291,997.0,996.0,,,,
211,"[{'id': 803, 'main': 'Clouds', 'description': 'broken clouds', 'icon': '04n'}]",model,,1581138327,-14400,3460355,Jaciara,200,-54.97,-15.97,70.93,76.89,70.93,70.93,1008,95,2.46,349.0,,66,,,BR,1581154366,1581200124,1008.0,963.0,,,,
212,"[{'id': 800, 'main': 'Clear', 'description': 'clear sky', 'icon': '01d'}]",stations,,1581138327,39600,2171069,Colac,200,143.58,-38.33,70.99,74.62,61.0,78.01,1021,78,1.99,191.0,,10,3.0,2007878.0,AU,1581104726,1581154456,,,11.01,,,
213,"[{'id': 600, 'main': 'Snow', 'description': 'light snow', 'icon': '13d'}]",model,,1581138327,36000,2122850,Nikolayevsk-on-Amure,200,140.73,53.14,-7.67,-17.16,-7.67,-7.67,1026,91,5.06,309.0,,100,,,RU,1581113437,1581147113,1026.0,996.0,,,0.12,
214,"[{'id': 600, 'main': 'Snow', 'description': 'light snow', 'icon': '13n'}]",stations,24140.0,1581138327,-21600,6165406,Thompson,200,-97.86,55.74,-0.4,-8.75,-0.4,-0.4,1009,84,3.36,300.0,,90,1.0,935.0,CA,1581084856,1581117414,,,,,,
215,"[{'id': 803, 'main': 'Clouds', 'description': 'broken clouds', 'icon': '04d'}]",stations,10000.0,1581138327,21600,1519395,Serebryansk,200,83.29,49.69,39.2,28.35,39.2,39.2,1019,55,11.18,190.0,,75,1.0,8831.0,KZ,1581126619,1581161503,,,,,,
216,"[{'id': 801, 'main': 'Clouds', 'description': 'few clouds', 'icon': '02n'}]",stations,24140.0,1581138328,-36000,5849996,Lahaina,200,-156.68,20.88,67.37,61.34,63.0,71.6,1008,56,11.41,280.0,,20,1.0,7851.0,US,1581094872,1581135633,,,,,,
217,"[{'id': 802, 'main': 'Clouds', 'description': 'scattered clouds', 'icon': '03d'}]",stations,10000.0,1581138328,36000,2167426,Emerald,200,148.17,-23.53,91.71,97.75,91.4,91.99,1005,55,5.82,250.0,,40,1.0,9524.0,AU,1581105021,1581151957,,,,,,
218,"[{'id': 802, 'main': 'Clouds', 'description': 'scattered clouds', 'icon': '03n'}]",stations,8000.0,1581138328,3600,2240449,Luanda,200,13.23,-8.84,75.2,80.91,75.2,75.2,1010,88,4.7,70.0,,40,1.0,2173.0,AO,1581138487,1581183265,,,,,,
219,"[{'id': 800, 'main': 'Clear', 'description': 'clear sky', 'icon': '01n'}]",model,,1581138328,3600,2318123,Yenagoa,200,6.26,4.92,73.06,80.42,73.06,73.06,1012,95,1.88,327.0,,0,,,NG,1581141063,1581184035,1012.0,1010.0,,,,
220,"[{'id': 804, 'main': 'Clouds', 'description': 'overcast clouds', 'icon': '04d'}]",model,,1581138328,25200,1631393,Prabumulih,200,104.25,-3.45,79.07,84.83,79.07,79.07,1011,82,6.22,293.0,,99,,,ID,1581116997,1581161063,1011.0,1008.0,,,,
221,"[{'id': 701, 'main': 'Mist', 'description': 'mist', 'icon': '50d'}]",stations,4000.0,1581138328,7200,1006984,East London,200,27.91,-33.02,69.8,76.08,69.8,69.8,1013,100,2.24,,,90,1.0,1912.0,ZA,1581133064,1581181641,,,,,,
222,"[{'id': 501, 'main': 'Rain', 'description': 'moderate rain', 'icon': '10d'}]",model,,1581138328,32400,1651810,Airai,200,125.41,-8.93,77.07,84.07,77.07,77.07,1008,83,2.48,235.0,6.06,94,,,TL,1581111552,1581156351,1008.0,903.0,,,,
223,"[{'id': 500, 'main': 'Rain', 'description': 'light rain', 'icon': '10n'}]",stations,8000.0,1581138329,0,2738381,Lata,200,-8.33,40.16,51.8,47.3,48.99,54.0,1022,93,8.05,130.0,,75,1.0,6896.0,PT,1581147344,1581184757,,,,,,
224,"[{'id': 800, 'main': 'Clear', 'description': 'clear sky', 'icon': '01d'}]",model,,1581138329,19800,1264976,Leh,200,77.58,34.17,-3.77,-11.81,-3.77,-3.77,1049,51,2.17,134.0,,0,,,IN,1581126134,1581164729,1049.0,605.0,,,,
225,"[{'id': 521, 'main': 'Rain', 'description': 'shower rain', 'icon': '09d'}]",stations,10000.0,1581138329,14400,933995,Souillac,200,57.52,-20.52,80.8,84.34,80.6,81.0,1015,69,6.93,150.0,,40,1.0,2061.0,MU,1581127023,1581173470,,,,,,
226,"[{'id': 800, 'main': 'Clear', 'description': 'clear sky', 'icon': '01n'}]",model,,1581138046,-14400,3453150,Ponta Pora,200,-55.73,-22.54,68.99,72.9,68.99,68.99,1008,95,4.45,100.0,,0,,,BR,1581154058,1581200797,1008.0,946.0,,,,
227,"[{'id': 800, 'main': 'Clear', 'description': 'clear sky', 'icon': '01d'}]",model,,1581138329,10800,100926,Umm Lajj,200,37.27,25.02,61.39,51.69,61.39,61.39,1020,48,13.82,358.0,,3,,,SA,1581135024,1581175188,1020.0,983.0,,,,
228,"[{'id': 800, 'main': 'Clear', 'description': 'clear sky', 'icon': '01n'}]",model,,1581138329,43200,2126710,Beringovskiy,200,179.32,63.05,-22.97,-39.71,-22.97,-22.97,1023,84,17.36,339.0,,0,,,RU,1581106700,1581135325,1023.0,1023.0,,,,
229,"[{'id': 804, 'main': 'Clouds', 'description': 'overcast clouds', 'icon': '04n'}]",stations,10000.0,1581138329,10800,547681,Kletnya,200,33.22,53.39,8.6,-1.26,8.6,8.6,1021,84,6.71,340.0,,88,1.0,9019.0,RU,1581139252,1581172904,,,,,,
230,"[{'id': 804, 'main': 'Clouds', 'description': 'overcast clouds', 'icon': '04d'}]",model,,1581138330,25200,1649593,Baturaja,200,104.17,-4.13,84.04,85.75,84.04,84.04,1011,61,9.73,317.0,,99,,,ID,1581116972,1581161127,1011.0,992.0,,,,
231,"[{'id': 804, 'main': 'Clouds', 'description': 'overcast clouds', 'icon': '04n'}]",model,,1581138330,10800,495575,Shatalovo,200,32.45,54.33,18.84,10.62,18.84,18.84,1024,80,4.79,259.0,,98,,,RU,1581139616,1581172910,1024.0,997.0,,,,
232,"[{'id': 701, 'main': 'Mist', 'description': 'mist', 'icon': '50n'}]",stations,6437.0,1581138288,-28800,5380437,Pacific Grove,200,-121.92,36.62,49.51,45.9,45.0,53.01,1020,87,4.7,20.0,,40,1.0,5885.0,US,1581087876,1581125944,,,,,,
233,"[{'id': 803, 'main': 'Clouds', 'description': 'broken clouds', 'icon': '04d'}]",model,,1581138330,28800,1651103,Atambua,200,124.89,-9.11,82.47,89.13,82.47,82.47,1008,73,4.45,294.0,,66,,,ID,1581111665,1581156488,1008.0,974.0,,,,
234,"[{'id': 800, 'main': 'Clear', 'description': 'clear sky', 'icon': '01n'}]",model,,1581138330,-10800,3457819,Marataizes,200,-40.82,-21.04,69.87,75.31,69.87,69.87,1014,96,2.73,329.0,,4,,,BR,1581150594,1581197103,1014.0,1007.0,,,,
235,"[{'id': 800, 'main': 'Clear', 'description': 'clear sky', 'icon': '01d'}]",model,,1581138330,18000,162158,Baharly,200,57.43,38.44,74.64,64.99,74.64,74.64,1006,16,9.26,206.0,,0,,,TM,1581131389,1581169146,1006.0,992.0,,,,
236,"[{'id': 803, 'main': 'Clouds', 'description': 'broken clouds', 'icon': '04n'}]",stations,24140.0,1581138331,-28800,6111862,Port Hardy,200,-127.42,50.7,39.2,34.59,39.2,39.2,1003,93,3.36,240.0,,75,1.0,1011.0,CA,1581090992,1581125468,,,,,,
237,"[{'id': 804, 'main': 'Clouds', 'description': 'overcast clouds', 'icon': '04n'}]",model,,1581138331,-18000,3939168,Huarmey,200,-78.15,-10.07,71.6,74.26,71.6,71.6,1015,73,2.77,247.0,,93,,,PE,1581160340,1581205277,1015.0,959.0,,,,
238,"[{'id': 804, 'main': 'Clouds', 'description': 'overcast clouds', 'icon': '04n'}]",model,,1581138331,3600,777019,Vardo,200,31.11,70.37,36.3,24.13,36.3,36.3,999,85,15.32,213.0,,100,,,NO,1581145966,1581167204,999.0,996.0,,,,
239,"[{'id': 803, 'main': 'Clouds', 'description': 'broken clouds', 'icon': '04n'}]",model,,1581138331,-25200,5887916,Athabasca,200,-113.29,54.72,15.33,8.74,15.33,15.33,1010,88,1.72,196.0,,72,,,CA,1581088341,1581121336,1010.0,928.0,,,,
240,"[{'id': 804, 'main': 'Clouds', 'description': 'overcast clouds', 'icon': '04n'}]",model,,1581138331,3600,2487130,Sidi Ali,200,0.42,36.1,51.71,50.9,51.71,51.71,1025,94,1.59,204.0,,100,,,DZ,1581144825,1581183076,1025.0,1003.0,,,,
241,"[{'id': 501, 'main': 'Rain', 'description': 'moderate rain', 'icon': '10d'}]",model,,1581138331,36000,2094342,Kavieng,200,150.8,-2.57,80.69,80.58,80.69,80.69,1007,85,19.35,278.0,3.44,95,,,PG,1581105882,1581149833,1007.0,1007.0,,,,
242,"[{'id': 802, 'main': 'Clouds', 'description': 'scattered clouds', 'icon': '03d'}]",stations,10000.0,1581138332,28800,1819729,Hong Kong,200,114.16,22.29,64.53,62.4,62.01,66.99,1024,68,5.82,40.0,,40,1.0,9154.0,HK,1581116368,1581156935,,,,,,
243,"[{'id': 502, 'main': 'Rain', 'description': 'heavy intensity rain', 'icon': '10d'}]",stations,3300.0,1581137951,39600,2147714,Sydney,200,151.21,-33.87,68.85,69.48,66.0,72.0,1016,100,11.41,150.0,,90,1.0,9599.0,AU,1581103368,1581152151,,,23.04,5.91,,
244,"[{'id': 804, 'main': 'Clouds', 'description': 'overcast clouds', 'icon': '04d'}]",model,,1581138333,7200,897045,Solwezi,200,26.39,-12.17,65.55,67.41,65.55,65.55,1016,95,5.41,331.0,,100,,,ZM,1581135101,1581180334,1016.0,859.0,,,,
245,"[{'id': 500, 'main': 'Rain', 'description': 'light rain', 'icon': '10d'}]",model,,1581138333,28800,1728675,Balabac,200,117.06,7.99,83.17,85.33,83.17,83.17,1010,75,13.94,50.0,1.63,100,,,PH,1581114674,1581157238,1010.0,1007.0,,,,
246,"[{'id': 801, 'main': 'Clouds', 'description': 'few clouds', 'icon': '02n'}]",stations,10000.0,1581138333,-3600,3372472,Vila Franca do Campo,200,-25.43,37.72,59.0,53.28,59.0,59.0,1028,72,10.29,250.0,,20,1.0,6899.0,PT,1581151187,1581189123,,,,,,
247,"[{'id': 803, 'main': 'Clouds', 'description': 'broken clouds', 'icon': '04n'}]",model,,1581138334,-10800,3421193,Paamiut,200,-49.67,61.99,7.27,-5.3,7.27,7.27,975,69,11.07,13.0,,80,,,GL,1581161192,1581190753,975.0,962.0,,,,
248,"[{'id': 600, 'main': 'Snow', 'description': 'light snow', 'icon': '13d'}]",stations,10000.0,1581138334,32400,2027296,Aykhal,200,111.5,66.0,5.0,-2.42,5.0,5.0,999,92,2.24,,,100,1.0,8846.0,RU,1581124126,1581150455,,,,,0.5,
249,"[{'id': 804, 'main': 'Clouds', 'description': 'overcast clouds', 'icon': '04d'}]",model,,1581138334,18000,482761,Tirlyanskiy,200,58.58,54.21,10.92,3.04,10.92,10.92,1004,96,3.74,255.0,,88,,,RU,1581133330,1581166653,1004.0,918.0,,,,
250,"[{'id': 800, 'main': 'Clear', 'description': 'clear sky', 'icon': '01d'}]",model,,1581138335,28800,1529376,Korla,200,86.15,41.76,28.54,19.62,28.54,28.54,1034,39,5.23,227.0,,0,,,CN,1581124867,1581161882,1034.0,815.0,,,,
251,"[{'id': 802, 'main': 'Clouds', 'description': 'scattered clouds', 'icon': '03d'}]",model,,1581138335,7200,986717,Kruisfontein,200,24.73,-34.0,69.12,73.08,69.12,69.12,1015,83,1.39,228.0,,41,,,ZA,1581133731,1581182501,1015.0,984.0,,,,
252,"[{'id': 800, 'main': 'Clear', 'description': 'clear sky', 'icon': '01d'}]",model,,1581138335,18000,1163054,Turbat,200,63.04,26.0,71.58,66.42,71.58,71.58,1023,23,2.77,104.0,,0,,,PK,1581128919,1581168923,1023.0,995.0,,,,
253,"[{'id': 800, 'main': 'Clear', 'description': 'clear sky', 'icon': '01n'}]",model,,1581138335,-14400,3625710,Upata,200,-62.4,8.01,66.02,69.4,66.02,66.02,1015,95,3.02,59.0,,0,,,VE,1581157742,1581200314,1015.0,973.0,,,,
254,"[{'id': 800, 'main': 'Clear', 'description': 'clear sky', 'icon': '01n'}]",stations,10000.0,1581138336,-10800,3899695,Ancud,200,-73.82,-41.87,48.2,43.65,48.2,48.2,1024,87,5.82,210.0,,0,1.0,8512.0,CL,1581156525,1581207013,,,,,,
255,"[{'id': 500, 'main': 'Rain', 'description': 'light rain', 'icon': '10n'}]",stations,16093.0,1581138336,-32400,5554072,Juneau,200,-134.42,58.3,32.76,28.13,30.2,35.01,1015,96,1.79,251.0,,90,1.0,7729.0,US,1581094210,1581125609,,,,,,
256,"[{'id': 800, 'main': 'Clear', 'description': 'clear sky', 'icon': '01n'}]",model,,1581138336,0,2409914,Bonthe,200,-12.51,7.53,74.19,80.49,74.19,74.19,1012,92,3.96,24.0,,0,,,SL,1581145738,1581188370,1012.0,1011.0,,,,
257,"[{'id': 800, 'main': 'Clear', 'description': 'clear sky', 'icon': '01n'}]",stations,10000.0,1581138336,-10800,3897774,Buin,200,-70.75,-33.73,70.74,64.65,70.0,71.6,1015,33,6.93,150.0,,0,1.0,8486.0,CL,1581156689,1581205375,,,,,,
258,"[{'id': 803, 'main': 'Clouds', 'description': 'broken clouds', 'icon': '04d'}]",stations,10000.0,1581138336,19800,1244926,Hambantota,200,81.12,6.12,84.2,87.37,84.2,84.2,1015,74,12.75,40.0,,75,1.0,9124.0,LK,1581123176,1581165988,,,,,,
259,"[{'id': 804, 'main': 'Clouds', 'description': 'overcast clouds', 'icon': '04d'}]",model,,1581138336,36000,2028164,Deputatsky,200,139.9,69.3,-43.11,-51.29,-43.11,-43.11,1027,100,1.9,87.0,,89,,,RU,1581119167,1581141781,1027.0,967.0,,,,
260,"[{'id': 804, 'main': 'Clouds', 'description': 'overcast clouds', 'icon': '04d'}]",model,,1581138337,21600,1521230,Makinsk,200,70.42,52.63,33.91,20.03,33.91,33.91,1000,99,18.72,236.0,,100,,,KZ,1581130197,1581164103,1000.0,952.0,,,,
261,"[{'id': 803, 'main': 'Clouds', 'description': 'broken clouds', 'icon': '04n'}]",stations,8000.0,1581138267,-10800,3832791,Villa Carlos Paz,200,-64.5,-31.42,69.24,75.24,64.99,72.0,1018,100,2.24,,,75,1.0,8226.0,AR,1581155409,1581203655,,,,,,
262,"[{'id': 800, 'main': 'Clear', 'description': 'clear sky', 'icon': '01n'}]",model,,1581138337,0,2297810,Mumford,200,-0.76,5.26,72.88,79.32,72.88,72.88,1012,96,3.65,319.0,,0,,,GH,1581142770,1581185698,1012.0,1001.0,,,,
263,"[{'id': 804, 'main': 'Clouds', 'description': 'overcast clouds', 'icon': '04n'}]",stations,,1581138337,0,2655707,Bideford,200,-4.2,51.02,43.39,33.64,39.99,46.99,1013,84,13.0,234.0,,100,3.0,2005965.0,GB,1581147806,1581182313,,,23.0,,,
264,"[{'id': 803, 'main': 'Clouds', 'description': 'broken clouds', 'icon': '04n'}]",model,,1581138337,-18000,3699980,Yaviza,200,-77.69,8.15,69.51,74.46,69.51,69.51,1012,95,3.04,324.0,,71,,,PA,1581161420,1581203975,1012.0,983.0,,,,
265,"[{'id': 500, 'main': 'Rain', 'description': 'light rain', 'icon': '10n'}]",stations,10000.0,1581138337,0,2618795,Klaksvik,200,-6.59,62.23,41.0,32.18,41.0,41.0,980,93,11.41,250.0,,100,1.0,1596.0,FO,1581150951,1581180316,,,23.04,,,
266,"[{'id': 500, 'main': 'Rain', 'description': 'light rain', 'icon': '10d'}]",stations,10000.0,1581138338,-36000,4035715,Avarua,200,-159.78,-21.21,80.6,83.1,80.6,80.6,1011,83,13.87,50.0,1.0,13,1.0,7271.0,CK,1581092707,1581139286,,,,,,
267,"[{'id': 800, 'main': 'Clear', 'description': 'clear sky', 'icon': '01d'}]",stations,10000.0,1581138338,10800,921900,Dzaoudzi,200,45.27,-12.79,82.4,93.0,82.4,82.4,1014,88,3.36,,,0,1.0,2131.0,YT,1581130525,1581175847,,,,,,
268,"[{'id': 801, 'main': 'Clouds', 'description': 'few clouds', 'icon': '02d'}]",stations,10000.0,1581138338,28800,1735106,George Town,200,100.34,5.41,89.38,91.13,89.01,89.6,1013,46,6.93,70.0,,20,1.0,9438.0,MY,1581118516,1581161421,,,,,,
269,"[{'id': 803, 'main': 'Clouds', 'description': 'broken clouds', 'icon': '04d'}]",model,,1581138338,28800,2032201,Bulgan,200,103.53,48.81,22.35,13.12,22.35,22.35,1029,70,6.64,295.0,,66,,,MN,1581121631,1581156776,1029.0,853.0,,,,
270,"[{'id': 804, 'main': 'Clouds', 'description': 'overcast clouds', 'icon': '04d'}]",model,,1581138338,18000,1540356,Raduzhny,200,77.47,62.1,3.04,-4.45,3.04,3.04,1006,95,2.26,80.0,,100,,,RU,1581130774,1581160142,1006.0,996.0,,,,
271,"[{'id': 800, 'main': 'Clear', 'description': 'clear sky', 'icon': '01n'}]",stations,16093.0,1581138292,-25200,5546220,Saint George,200,-113.58,37.1,41.67,35.92,30.0,48.2,1021,63,3.36,160.0,,1,1.0,3373.0,US,1581085924,1581123892,,,,,,
272,"[{'id': 500, 'main': 'Rain', 'description': 'light rain', 'icon': '10n'}]",stations,8000.0,1581138254,0,2742416,Barcelos,200,-8.62,41.54,51.1,48.31,48.0,53.6,1023,93,4.7,190.0,,75,1.0,6900.0,PT,1581147569,1581184672,,,,,,
273,"[{'id': 804, 'main': 'Clouds', 'description': 'overcast clouds', 'icon': '04d'}]",stations,10000.0,1581138339,39600,2108502,Honiara,200,159.95,-9.43,89.6,91.9,89.6,89.6,1001,66,16.11,270.0,,90,1.0,2.0,SB,1581103227,1581148096,,,,,,
274,"[{'id': 701, 'main': 'Mist', 'description': 'mist', 'icon': '50d'}]",stations,3000.0,1581138339,7200,212730,Kisangani,200,25.2,0.52,71.6,76.48,71.6,71.6,1011,94,4.7,50.0,,95,1.0,2329.0,CD,1581136231,1581179776,,,,,,
275,"[{'id': 803, 'main': 'Clouds', 'description': 'broken clouds', 'icon': '04d'}]",stations,10000.0,1581138339,39600,2152659,Port Macquarie,200,152.92,-31.43,73.33,76.21,69.8,75.2,1010,88,8.05,130.0,,75,1.0,9573.0,AU,1581103194,1581151504,,,,,,
276,"[{'id': 800, 'main': 'Clear', 'description': 'clear sky', 'icon': '01d'}]",stations,10000.0,1581138339,14400,6690296,Saint-Joseph,200,55.62,-21.37,78.06,73.69,70.0,82.4,1015,58,14.99,110.0,,0,1.0,2127.0,RE,1581127413,1581173991,,,,,,
277,"[{'id': 500, 'main': 'Rain', 'description': 'light rain', 'icon': '10d'}]",model,,1581138339,32400,1636308,Manokwari,200,134.08,-0.87,77.05,81.73,77.05,77.05,1008,82,6.26,20.0,0.5,98,,,ID,1581110007,1581153734,1008.0,962.0,,,,
278,"[{'id': 741, 'main': 'Fog', 'description': 'fog', 'icon': '50n'}]",stations,10000.0,1581138339,43200,2127202,Anadyr,200,177.48,64.75,-38.09,-51.52,-38.2,-38.0,1026,65,11.18,330.0,,17,1.0,8872.0,RU,1581107787,1581135122,,,13.42,,,
279,"[{'id': 500, 'main': 'Rain', 'description': 'light rain', 'icon': '10d'}]",model,,1581138167,7200,1048364,Chokwe,200,32.98,-24.53,84.07,90.27,84.07,84.07,1015,70,5.59,22.0,2.44,68,,,MZ,1581132599,1581179673,1015.0,1011.0,,,,
280,"[{'id': 701, 'main': 'Mist', 'description': 'mist', 'icon': '50n'}]",stations,1609.0,1581138340,-25200,5637146,Anaconda,200,-112.94,46.13,24.84,18.05,21.2,28.0,1009,85,3.36,20.0,,90,1.0,3509.0,US,1581086833,1581122676,,,,,,
281,"[{'id': 801, 'main': 'Clouds', 'description': 'few clouds', 'icon': '02n'}]",stations,10000.0,1581138340,3600,3051001,Jak,200,16.58,47.14,30.2,24.24,23.0,33.8,1031,74,2.24,,,18,1.0,6674.0,HU,1581142234,1581177910,,,,,,
282,"[{'id': 801, 'main': 'Clouds', 'description': 'few clouds', 'icon': '02n'}]",stations,10000.0,1581138340,-10800,3386213,Touros,200,-35.46,-5.2,77.0,85.68,77.0,77.0,1012,88,1.12,320.0,,20,1.0,8452.0,BR,1581150416,1581194708,,,,,,
283,"[{'id': 620, 'main': 'Snow', 'description': 'light shower snow', 'icon': '13d'}]",stations,2500.0,1581138340,10800,515805,Oktyabrskoye,200,44.74,43.06,30.13,23.77,30.0,30.2,1005,100,4.47,240.0,,90,1.0,8969.0,RU,1581134952,1581171675,,,,,,
284,"[{'id': 800, 'main': 'Clear', 'description': 'clear sky', 'icon': '01d'}]",stations,,1581138340,7200,3361934,Saldanha,200,17.94,-33.01,57.2,56.1,57.2,57.2,1011,71,1.12,340.0,,0,1.0,1943.0,ZA,1581135459,1581184032,,,,,,
285,"[{'id': 801, 'main': 'Clouds', 'description': 'few clouds', 'icon': '02d'}]",model,,1581138340,7200,364933,Umm Kaddadah,200,26.69,13.6,68.5,50.2,68.5,68.5,1017,16,23.73,38.0,,24,,,SD,1581136736,1581178555,1017.0,942.0,,,,
286,"[{'id': 800, 'main': 'Clear', 'description': 'clear sky', 'icon': '01n'}]",stations,16093.0,1581138341,-25200,5468773,Gallup,200,-108.74,35.53,37.4,29.53,37.4,37.4,1019,44,4.7,200.0,,1,1.0,4279.0,US,1581084606,1581122886,,,,,,
287,"[{'id': 801, 'main': 'Clouds', 'description': 'few clouds', 'icon': '02d'}]",stations,10000.0,1581138341,25200,1153072,Kantang,200,99.52,7.41,87.8,87.4,87.8,87.8,1014,45,9.17,50.0,,20,1.0,9284.0,TH,1581118845,1581161486,,,23.04,,,
288,"[{'id': 803, 'main': 'Clouds', 'description': 'broken clouds', 'icon': '04d'}]",model,,1581138341,25200,1831166,Kampong Chhnang,200,104.55,12.17,89.22,87.22,89.22,89.22,1013,35,8.03,50.0,,54,,,KH,1581117956,1581159961,1013.0,1003.0,,,,
289,"[{'id': 800, 'main': 'Clear', 'description': 'clear sky', 'icon': '01n'}]",stations,,1581138341,-14400,3480908,La Asuncion,200,-63.86,11.03,78.8,79.95,78.8,78.8,1016,78,12.75,100.0,,0,1.0,8732.0,VE,1581158292,1581200465,,,,,,
290,"[{'id': 802, 'main': 'Clouds', 'description': 'scattered clouds', 'icon': '03n'}]",stations,10000.0,1581138341,-18000,3939285,Huaral,200,-77.21,-11.49,73.4,76.32,73.4,73.4,1013,88,8.05,170.0,,40,1.0,8682.0,PE,1581160017,1581205148,,,,,,
291,"[{'id': 501, 'main': 'Rain', 'description': 'moderate rain', 'icon': '10d'}]",model,,1581138341,36000,2090021,Namatanai,200,152.43,-3.67,82.96,85.51,82.96,82.96,1006,78,14.23,299.0,5.75,63,,,PG,1581105418,1581149515,1006.0,1005.0,,,,
292,"[{'id': 802, 'main': 'Clouds', 'description': 'scattered clouds', 'icon': '03d'}]",model,,1581138342,10800,186180,Moyale,200,39.06,3.52,78.21,71.62,78.21,78.21,1017,37,11.74,78.0,,50,,,KE,1581133100,1581176254,1017.0,918.0,,,,
293,"[{'id': 501, 'main': 'Rain', 'description': 'moderate rain', 'icon': '10d'}]",model,,1581138342,7200,906221,Mkushi,200,29.39,-13.62,64.11,66.6,64.11,64.11,1017,98,3.87,335.0,3.69,100,,,ZM,1581134280,1581179716,1017.0,866.0,,,,
294,"[{'id': 500, 'main': 'Rain', 'description': 'light rain', 'icon': '10d'}]",model,,1581138342,3600,2315026,Kasongo-Lunda,200,16.82,-6.47,69.75,75.87,69.75,69.75,1015,96,1.43,150.0,1.25,100,,,CD,1581137784,1581182245,1015.0,932.0,,,,
295,"[{'id': 800, 'main': 'Clear', 'description': 'clear sky', 'icon': '01d'}]",stations,10000.0,1581138342,28800,2070998,Geraldton,200,114.6,-28.77,82.4,79.14,82.4,82.4,1008,61,17.22,210.0,,0,1.0,9522.0,AU,1581112640,1581160452,,,,,,
296,"[{'id': 500, 'main': 'Rain', 'description': 'light rain', 'icon': '10d'}]",model,,1581138343,28800,1715015,Dicabisagan,200,122.42,17.08,74.53,74.35,74.53,74.53,1016,89,14.85,27.0,2.94,98,,,PH,1581114007,1581155332,1016.0,1009.0,,,,
297,"[{'id': 803, 'main': 'Clouds', 'description': 'broken clouds', 'icon': '04d'}]",model,,1581138343,10800,333795,Jijiga,200,42.8,9.35,68.56,56.44,68.56,68.56,1019,26,15.26,54.0,,83,,,ET,1581132585,1581174973,1019.0,829.0,,,,
298,"[{'id': 802, 'main': 'Clouds', 'description': 'scattered clouds', 'icon': '03d'}]",stations,10000.0,1581138343,28800,1790437,Zhuhai,200,113.57,22.28,64.58,59.67,62.01,66.99,1024,77,12.75,360.0,,40,1.0,9204.0,CN,1581116509,1581157078,,,,,,
299,"[{'id': 800, 'main': 'Clear', 'description': 'clear sky', 'icon': '01d'}]",stations,6000.0,1581138343,19800,1258847,Rajkot,200,70.78,22.3,64.4,59.43,64.4,64.4,1020,45,5.82,70.0,,0,1.0,9061.0,IN,1581126777,1581167350,,,,,,
300,"[{'id': 800, 'main': 'Clear', 'description': 'clear sky', 'icon': '01n'}]",stations,,1581138343,-10800,3451138,Rio Grande,200,-52.1,-32.03,78.01,86.0,78.01,78.01,1010,87,3.0,43.0,,0,3.0,2020865.0,BR,1581152374,1581200738,,,8.01,,,
301,"[{'id': 501, 'main': 'Rain', 'description': 'moderate rain', 'icon': '10d'}]",model,,1581138343,36000,2132606,Samarai,200,150.67,-10.62,77.23,83.68,77.23,77.23,1004,90,5.99,272.0,3.44,96,,,PG,1581105373,1581150405,1004.0,989.0,,,,
302,"[{'id': 501, 'main': 'Rain', 'description': 'moderate rain', 'icon': '10n'}]",model,,1581138344,-10800,3401845,Conceicao do Araguaia,200,-49.26,-8.26,71.82,79.7,71.82,71.82,1011,99,0.94,208.0,3.56,100,,,BR,1581153526,1581198223,1011.0,988.0,,,,
303,"[{'id': 801, 'main': 'Clouds', 'description': 'few clouds', 'icon': '02d'}]",stations,6000.0,1581138344,20700,1283240,Kathmandu,200,85.32,27.72,55.4,50.0,55.4,55.4,1024,50,4.7,110.0,,20,1.0,9201.0,NP,1581123713,1581163435,,,,,,
304,"[{'id': 500, 'main': 'Rain', 'description': 'light rain', 'icon': '10d'}]",model,,1581138344,28800,1711655,Hinatuan,200,126.33,8.37,80.64,84.02,80.64,80.64,1012,80,11.23,52.0,0.25,100,,,PH,1581112475,1581154987,1012.0,1011.0,,,,
305,"[{'id': 804, 'main': 'Clouds', 'description': 'overcast clouds', 'icon': '04d'}]",model,,1581138344,32400,2128025,Shizunai,200,142.37,42.33,19.8,11.07,19.8,19.8,1014,73,5.55,301.0,,98,,,JP,1581111453,1581148310,1014.0,968.0,,,,
306,"[{'id': 804, 'main': 'Clouds', 'description': 'overcast clouds', 'icon': '04d'}]",model,,1581138344,7200,209598,Manono,200,27.42,-7.3,71.94,78.19,71.94,71.94,1015,89,1.16,108.0,,90,,,CD,1581135184,1581179757,1015.0,938.0,,,,
307,"[{'id': 801, 'main': 'Clouds', 'description': 'few clouds', 'icon': '02d'}]",stations,10000.0,1581138344,25200,1831112,Kampot,200,104.18,10.62,86.88,87.48,86.0,87.8,1014,58,12.75,90.0,,20,1.0,9312.0,KH,1581117940,1581160154,,,,,,
308,"[{'id': 802, 'main': 'Clouds', 'description': 'scattered clouds', 'icon': '03d'}]",stations,10000.0,1581138345,18000,566027,Dmitriyevka,200,55.33,54.75,5.0,-4.94,5.0,5.0,1003,92,6.71,290.0,,40,1.0,9050.0,RU,1581134216,1581167328,,,,,,
309,"[{'id': 804, 'main': 'Clouds', 'description': 'overcast clouds', 'icon': '04d'}]",stations,9000.0,1581138345,25200,1510377,Belyy Yar,200,91.39,53.6,32.0,23.99,32.0,32.0,1020,82,6.71,220.0,,99,1.0,8942.0,RU,1581125349,1581158885,,,,,,
310,"[{'id': 802, 'main': 'Clouds', 'description': 'scattered clouds', 'icon': '03d'}]",stations,,1581138345,36000,2162683,Innisfail,200,146.03,-17.53,86.0,92.43,86.0,86.0,1007,61,3.0,173.0,,29,3.0,20843.0,AU,1581105996,1581152009,,,5.99,,,
311,"[{'id': 803, 'main': 'Clouds', 'description': 'broken clouds', 'icon': '04d'}]",stations,10000.0,1581138345,10800,528242,Mayskiy,200,40.1,47.69,3.2,-9.42,3.2,3.2,1014,84,11.18,320.0,,76,1.0,8971.0,RU,1581136673,1581172181,,,,,,
312,"[{'id': 803, 'main': 'Clouds', 'description': 'broken clouds', 'icon': '04n'}]",stations,10000.0,1581138345,-14400,3904906,Santa Cruz de la Sierra,200,-63.17,-17.8,77.83,83.07,77.0,78.8,1010,88,8.05,330.0,,75,1.0,8661.0,BO,1581156202,1581202224,,,,,,
313,"[{'id': 800, 'main': 'Clear', 'description': 'clear sky', 'icon': '01n'}]",stations,16093.0,1581137708,-18000,4791259,Virginia Beach,200,-75.98,36.85,39.49,27.39,37.4,42.01,1016,47,12.75,280.0,,1,1.0,3680.0,US,1581076881,1581114886,,,,,,
314,"[{'id': 800, 'main': 'Clear', 'description': 'clear sky', 'icon': '01n'}]",model,,1581138345,-10800,3421765,Nanortalik,200,-45.24,60.14,24.31,-9.98,24.31,24.31,965,70,51.38,296.0,,0,,,GL,1581159582,1581190237,965.0,960.0,,,,
315,"[{'id': 802, 'main': 'Clouds', 'description': 'scattered clouds', 'icon': '03d'}]",stations,9000.0,1581138345,25200,1538641,Kedrovyy,200,91.82,56.17,21.2,13.44,21.2,21.2,1017,85,4.47,80.0,,40,1.0,8957.0,RU,1581125767,1581158261,,,,,,
316,"[{'id': 800, 'main': 'Clear', 'description': 'clear sky', 'icon': '01n'}]",model,,1581138346,0,2412408,Nioro,200,-15.75,13.35,68.43,57.97,68.43,68.43,1013,11,8.55,58.0,,0,,,GM,1581146903,1581188760,1013.0,1010.0,,,,
317,"[{'id': 800, 'main': 'Clear', 'description': 'clear sky', 'icon': '01d'}]",model,,1581138346,28800,2034600,Taikang,200,124.42,46.83,7.38,-3.82,7.38,7.38,1030,85,9.01,214.0,,0,,,CN,1581116335,1581152044,1030.0,1012.0,,,,
318,"[{'id': 501, 'main': 'Rain', 'description': 'moderate rain', 'icon': '10d'}]",model,,1581138346,25200,8079926,Labuhan,200,112.21,-6.88,82.2,89.94,82.2,82.2,1009,82,5.86,337.0,3.38,67,,,ID,1581114859,1581159381,1009.0,998.0,,,,
319,"[{'id': 803, 'main': 'Clouds', 'description': 'broken clouds', 'icon': '04d'}]",model,,1581138346,21600,1524787,Turkistan,200,68.0,43.0,56.01,43.5,56.01,56.01,1013,29,14.12,164.0,,61,,,KZ,1581129367,1581166095,1013.0,991.0,,,,
320,"[{'id': 800, 'main': 'Clear', 'description': 'clear sky', 'icon': '01n'}]",stations,16093.0,1581138346,-18000,4161957,Lighthouse Point,200,-80.09,26.28,61.56,56.16,59.0,64.4,1021,63,9.17,320.0,,1,1.0,4735.0,US,1581163278,1581203270,,,,,,
321,"[{'id': 800, 'main': 'Clear', 'description': 'clear sky', 'icon': '01n'}]",model,,1581138346,3600,2318921,Wukari,200,9.78,7.85,71.04,63.39,71.04,71.04,1013,19,5.97,45.0,,0,,,NG,1581140410,1581182999,1013.0,996.0,,,,
322,"[{'id': 800, 'main': 'Clear', 'description': 'clear sky', 'icon': '01n'}]",stations,,1581138209,-10800,3841956,Parana,200,-60.52,-31.73,75.99,84.92,75.0,77.0,1008,92,1.01,297.0,,8,3.0,2019769.0,AR,1581154424,1581202729,,,5.01,,,
323,"[{'id': 800, 'main': 'Clear', 'description': 'clear sky', 'icon': '01d'}]",model,,1581138347,19800,1255361,Suratgarh,200,73.9,29.32,66.29,62.19,66.29,66.29,1025,31,1.68,291.0,,0,,,IN,1581126585,1581166044,1025.0,1003.0,,,,
324,"[{'id': 800, 'main': 'Clear', 'description': 'clear sky', 'icon': '01n'}]",stations,24140.0,1581138347,-25200,6170031,Tuktoyaktuk,200,-133.04,69.45,-40.0,-52.29,-40.0,-40.0,1020,72,9.17,230.0,,5,1.0,942.0,CA,1581098446,1581120711,,,,,,
325,"[{'id': 804, 'main': 'Clouds', 'description': 'overcast clouds', 'icon': '04n'}]",stations,10000.0,1581138347,-10800,3392126,Pilar,200,-35.96,-9.6,75.2,83.35,75.2,75.2,1013,94,2.24,10.0,,87,1.0,8413.0,BR,1581150244,1581195121,,,,,,
326,"[{'id': 801, 'main': 'Clouds', 'description': 'few clouds', 'icon': '02n'}]",stations,10000.0,1581138347,0,2517111,Granadilla de Abona,200,-16.58,28.12,57.9,52.68,50.0,64.99,1026,67,8.05,50.0,,20,1.0,2373.0,ES,1581148191,1581187871,,,,,,
327,"[{'id': 600, 'main': 'Snow', 'description': 'light snow', 'icon': '13n'}]",stations,16093.0,1581138347,-25200,5838199,Sheridan,200,-106.92,44.83,25.3,18.34,23.0,26.6,1013,86,3.8,156.0,,90,1.0,5841.0,US,1581085216,1581121403,,,,,,0.25
328,"[{'id': 601, 'main': 'Snow', 'description': 'snow', 'icon': '13d'}]",model,,1581138347,25200,1511057,Bakchar,200,82.07,57.02,28.56,18.43,28.56,28.56,1002,96,10.58,165.0,,100,,,RU,1581128293,1581160415,1002.0,988.0,,,2.44,
329,"[{'id': 200, 'main': 'Thunderstorm', 'description': 'thunderstorm with light rain', 'icon': '11d'}]",stations,8000.0,1581138348,10800,296852,Erzin,200,36.2,36.96,46.17,32.23,44.01,50.0,1005,57,18.34,230.0,,40,1.0,7008.0,TR,1581136329,1581174397,,,,,,
330,"[{'id': 804, 'main': 'Clouds', 'description': 'overcast clouds', 'icon': '04n'}]",model,,1581138348,0,2381334,Atar,200,-13.05,20.52,64.42,54.52,64.42,64.42,1018,17,8.5,74.0,,100,,,MR,1581146758,1581187609,1018.0,974.0,,,,
331,"[{'id': 804, 'main': 'Clouds', 'description': 'overcast clouds', 'icon': '04d'}]",model,,1581138348,28800,1637510,Loa Janan,200,117.09,-0.58,91.22,98.38,91.22,91.22,1008,53,2.37,343.0,,100,,,ID,1581114104,1581157793,1008.0,1004.0,,,,
332,"[{'id': 802, 'main': 'Clouds', 'description': 'scattered clouds', 'icon': '03n'}]",model,,1581138348,-18000,3686479,Chiriguana,200,-73.6,9.36,74.66,76.06,74.66,74.66,1012,57,2.3,160.0,,50,,,CO,1581160518,1581202914,1012.0,1001.0,,,,
333,"[{'id': 804, 'main': 'Clouds', 'description': 'overcast clouds', 'icon': '04d'}]",model,,1581138348,32400,2026023,Bukachacha,200,116.92,52.98,4.89,-3.23,4.89,4.89,1022,85,3.33,237.0,,100,,,RU,1581119114,1581152865,1022.0,911.0,,,,
334,"[{'id': 802, 'main': 'Clouds', 'description': 'scattered clouds', 'icon': '03d'}]",model,,1581138348,25200,1650434,Bambanglipuro,200,110.28,-7.95,88.86,95.5,88.86,88.86,1009,56,2.77,285.0,,42,,,ID,1581115250,1581159916,1009.0,988.0,,,,
335,"[{'id': 600, 'main': 'Snow', 'description': 'light snow', 'icon': '13d'}]",model,,1581138348,25200,1508260,Novobirilyussy,200,90.67,56.95,24.44,14.18,24.44,24.44,1015,94,9.86,170.0,,100,,,RU,1581126216,1581158363,1015.0,992.0,,,0.13,
336,"[{'id': 501, 'main': 'Rain', 'description': 'moderate rain', 'icon': '10n'}]",model,,1581138349,-10800,3385935,Tucurui,200,-49.67,-3.77,72.99,78.76,72.99,72.99,1010,97,5.21,8.0,4.25,100,,,BR,1581153921,1581198024,1010.0,1000.0,,,,
337,"[{'id': 800, 'main': 'Clear', 'description': 'clear sky', 'icon': '01d'}]",model,,1581138349,10800,197745,Garissa,200,39.64,-0.45,79.56,82.35,79.56,79.56,1017,63,5.08,132.0,,6,,,KE,1581132702,1581176373,1017.0,989.0,,,,
338,"[{'id': 801, 'main': 'Clouds', 'description': 'few clouds', 'icon': '02n'}]",stations,6000.0,1581138349,0,2291580,Bingerville,200,-3.89,5.36,78.8,90.88,78.8,78.8,1010,100,1.12,270.0,,16,1.0,1162.0,CI,1581143527,1581186443,,,,,,
339,"[{'id': 804, 'main': 'Clouds', 'description': 'overcast clouds', 'icon': '04d'}]",model,,1581138349,7200,893485,Chiredzi,200,31.67,-21.05,78.75,83.8,78.75,78.75,1015,72,3.62,309.0,,98,,,ZW,1581133188,1581179712,1015.0,966.0,,,,
340,"[{'id': 501, 'main': 'Rain', 'description': 'moderate rain', 'icon': '10n'}]",stations,4200.0,1581138349,0,2644605,Lerwick,200,-1.15,60.15,46.4,25.97,46.4,46.4,992,87,33.33,170.0,,77,1.0,1438.0,GB,1581149022,1581179633,,,44.96,,,
341,"[{'id': 500, 'main': 'Rain', 'description': 'light rain', 'icon': '10n'}]",stations,5000.0,1581138349,-10800,3395042,Mazagao,200,-51.29,-0.12,75.2,83.03,75.2,75.2,1012,100,4.7,50.0,,90,1.0,8415.0,BR,1581154547,1581198176,,,,,,
342,"[{'id': 804, 'main': 'Clouds', 'description': 'overcast clouds', 'icon': '04n'}]",stations,,1581138349,3600,3118304,Llanes,200,-4.75,43.42,48.27,36.59,44.01,50.0,1013,91,18.99,300.0,,100,3.0,2010396.0,ES,1581146863,1581183520,,,,,,
343,"[{'id': 802, 'main': 'Clouds', 'description': 'scattered clouds', 'icon': '03d'}]",stations,10000.0,1581138350,37800,2063056,Port Augusta,200,137.77,-32.5,89.83,84.99,89.6,90.0,1013,31,11.41,170.0,,28,1.0,9613.0,AU,1581106731,1581155240,,,,,,
344,"[{'id': 601, 'main': 'Snow', 'description': 'snow', 'icon': '13n'}]",model,,1581138350,-14400,6137462,Saint-Augustin,200,-58.65,51.23,9.19,-15.83,9.19,9.19,980,94,33.91,49.0,,100,,,CA,1581160894,1581195362,980.0,981.0,,,6.63,
345,"[{'id': 500, 'main': 'Rain', 'description': 'light rain', 'icon': '10d'}]",stations,,1581138350,-39600,4036284,Alofi,200,-169.92,-19.06,78.8,81.3,78.8,78.8,1008,88,13.87,100.0,1.63,100,1.0,7306.0,NU,1581095307,1581141554,,,,,,
346,"[{'id': 501, 'main': 'Rain', 'description': 'moderate rain', 'icon': '10d'}]",stations,3000.0,1581138350,7200,293825,Qiryat Shemona,200,35.57,33.21,55.4,36.73,54.0,57.2,1014,54,28.86,250.0,,75,1.0,7532.0,IL,1581136121,1581174907,,,,,,
347,"[{'id': 800, 'main': 'Clear', 'description': 'clear sky', 'icon': '01d'}]",stations,,1581138350,7200,3355672,Luderitz,200,15.16,-26.65,60.8,62.35,60.8,60.8,1012,87,1.12,190.0,,0,1.0,2260.0,NA,1581136702,1581184124,,,,,,
348,"[{'id': 600, 'main': 'Snow', 'description': 'light snow', 'icon': '13n'}]",model,,1581138350,0,3414079,Olafsvik,200,-23.71,64.89,37.04,13.86,37.04,37.04,964,67,33.67,146.0,,19,,,IS,1581156018,1581183466,964.0,953.0,,,0.13,
349,"[{'id': 600, 'main': 'Snow', 'description': 'light snow', 'icon': '13n'}]",stations,12874.0,1581138350,-25200,6089245,Norman Wells,200,-126.83,65.28,-7.6,-18.87,-7.6,-7.6,1017,76,8.05,290.0,,75,1.0,951.0,CA,1581094676,1581121501,,,,,,
350,"[{'id': 500, 'main': 'Rain', 'description': 'light rain', 'icon': '10n'}]",model,,1581138350,-14400,3902685,Eucaliptus,200,-67.52,-17.58,47.84,43.57,47.84,47.84,1017,78,4.09,40.0,0.25,100,,,BO,1581157262,1581203251,1017.0,641.0,,,,
351,"[{'id': 800, 'main': 'Clear', 'description': 'clear sky', 'icon': '01d'}]",model,,1581138351,10800,77408,Bajil,200,43.29,15.06,75.36,77.58,75.36,75.36,1019,67,4.43,275.0,,0,,,YE,1581132853,1581174470,1019.0,943.0,,,,
352,"[{'id': 802, 'main': 'Clouds', 'description': 'scattered clouds', 'icon': '03d'}]",model,,1581138351,43200,2120591,Tilichiki,200,166.1,60.47,-28.3,-40.88,-28.3,-28.3,1026,91,9.89,2.0,,27,,,RU,1581109044,1581139327,1026.0,1011.0,,,,
353,"[{'id': 500, 'main': 'Rain', 'description': 'light rain', 'icon': '10d'}]",model,,1581138351,28800,1714733,Dingle,200,122.67,11.0,84.81,85.26,84.81,84.81,1011,64,13.89,55.0,0.12,37,,,PH,1581113529,1581155690,1011.0,996.0,,,,
354,"[{'id': 803, 'main': 'Clouds', 'description': 'broken clouds', 'icon': '04d'}]",model,,1581138351,25200,1516048,Khovd,200,91.64,48.01,13.84,5.72,13.84,13.84,1032,63,3.51,80.0,,69,,,MN,1581124363,1581159751,1032.0,833.0,,,,
355,"[{'id': 802, 'main': 'Clouds', 'description': 'scattered clouds', 'icon': '03d'}]",model,,1581138352,18000,1502073,Krasnosel'kup,200,82.47,65.7,-13.9,-27.06,-13.9,-13.9,1007,96,11.36,209.0,,49,,,RU,1581130940,1581157575,1007.0,1003.0,,,,
356,"[{'id': 501, 'main': 'Rain', 'description': 'moderate rain', 'icon': '10d'}]",model,,1581138352,39600,2134814,Sola,200,167.55,-13.88,81.12,80.31,81.12,81.12,1001,89,22.59,50.0,5.94,100,,,VU,1581101094,1581146582,1001.0,999.0,,,,
357,"[{'id': 804, 'main': 'Clouds', 'description': 'overcast clouds', 'icon': '04d'}]",model,,1581138152,28800,1633034,Palu,200,119.87,-0.89,84.38,85.48,84.38,84.38,1009,47,5.17,321.0,,100,,,ID,1581113417,1581157146,1009.0,931.0,,,,
358,"[{'id': 803, 'main': 'Clouds', 'description': 'broken clouds', 'icon': '04d'}]",stations,10000.0,1581138353,7200,933677,Kasane,200,25.15,-17.82,68.0,70.75,68.0,68.0,1015,100,6.93,100.0,,75,1.0,2002.0,BW,1581134996,1581181034,,,,,,
359,"[{'id': 804, 'main': 'Clouds', 'description': 'overcast clouds', 'icon': '04d'}]",model,,1581138353,10800,504717,Pronsk,200,39.61,54.1,3.27,-8.36,3.27,3.27,1021,95,9.64,351.0,,95,,,RU,1581137855,1581171234,1021.0,999.0,,,,
360,"[{'id': 804, 'main': 'Clouds', 'description': 'overcast clouds', 'icon': '04n'}]",stations,24140.0,1581138221,-21600,6148373,Sioux Lookout,200,-91.92,50.1,-10.16,-19.59,-13.0,-5.8,1014,75,4.7,160.0,,90,1.0,979.0,CA,1581082383,1581117035,,,,,,
361,"[{'id': 800, 'main': 'Clear', 'description': 'clear sky', 'icon': '01n'}]",stations,16093.0,1581138190,-21600,5697939,North Platte,200,-100.77,41.12,20.19,9.81,19.0,21.2,1016,79,8.77,275.0,,1,1.0,4674.0,US,1581083287,1581120380,,,,,,
362,"[{'id': 500, 'main': 'Rain', 'description': 'light rain', 'icon': '10d'}]",model,,1581138354,7200,920233,Chibombo,200,28.07,-14.66,66.99,70.48,66.99,66.99,1016,96,3.83,18.0,0.69,100,,,ZM,1581134523,1581180106,1016.0,891.0,,,,
363,"[{'id': 803, 'main': 'Clouds', 'description': 'broken clouds', 'icon': '04n'}]",stations,10000.0,1581138355,7200,686090,Asau,200,26.4,46.43,23.9,11.28,21.0,25.0,1029,68,12.75,330.0,,75,1.0,6909.0,RO,1581139782,1581175649,,,,,,
364,"[{'id': 800, 'main': 'Clear', 'description': 'clear sky', 'icon': '01n'}]",stations,16093.0,1581138355,-25200,5454627,Alamogordo,200,-105.96,32.9,41.0,30.07,28.0,53.01,1016,40,10.29,130.0,,1,1.0,4387.0,US,1581083690,1581122469,,,,,,
365,"[{'id': 800, 'main': 'Clear', 'description': 'clear sky', 'icon': '01d'}]",stations,7000.0,1581138355,18000,1513087,Nurota,200,65.69,40.56,59.0,40.44,59.0,59.0,1012,16,23.04,160.0,,0,1.0,9007.0,UZ,1581129637,1581166933,,,,,,
366,"[{'id': 804, 'main': 'Clouds', 'description': 'overcast clouds', 'icon': '04n'}]",model,,1581138356,43200,4031637,Lavrentiya,200,-171.0,65.58,-22.63,-32.35,-22.63,-22.63,1019,89,4.94,320.0,,93,,,RU,1581191571,1581218615,1019.0,1013.0,,,,
367,"[{'id': 800, 'main': 'Clear', 'description': 'clear sky', 'icon': '01n'}]",stations,16093.0,1581138356,-21600,4670234,Alice,200,-98.07,27.75,61.38,57.76,55.0,64.4,1017,68,6.93,150.0,,1,1.0,4513.0,US,1581081348,1581121023,,,,,,
368,"[{'id': 801, 'main': 'Clouds', 'description': 'few clouds', 'icon': '02n'}]",model,,1581138356,-18000,3671519,Puerto Carreno,200,-67.49,6.19,79.88,77.85,79.88,79.88,1010,51,9.48,46.0,,19,,,CO,1581158845,1581201655,1010.0,1002.0,,,,
369,"[{'id': 802, 'main': 'Clouds', 'description': 'scattered clouds', 'icon': '03n'}]",stations,10000.0,1581138226,-10800,3382160,Cayenne,200,-52.33,4.93,78.8,83.23,78.8,78.8,1012,78,6.93,30.0,,40,1.0,8669.0,GF,1581155124,1581198098,,,,,,
370,"[{'id': 804, 'main': 'Clouds', 'description': 'overcast clouds', 'icon': '04n'}]",stations,14484.0,1581138356,-28800,6063191,Mackenzie,200,-123.17,55.3,19.4,10.44,19.4,19.4,1007,100,6.93,350.0,,90,1.0,1016.0,CA,1581090828,1581123591,,,,,,
371,"[{'id': 801, 'main': 'Clouds', 'description': 'few clouds', 'icon': '02n'}]",stations,10000.0,1581138356,-10800,3860443,Comodoro Rivadavia,200,-67.5,-45.87,51.8,49.19,51.8,51.8,1025,93,4.7,250.0,,20,1.0,8284.0,AR,1581154466,1581206038,,,,,,
372,"[{'id': 500, 'main': 'Rain', 'description': 'light rain', 'icon': '10n'}]",model,,1581138356,3600,2256895,Mossendjo,200,12.73,-2.95,71.24,77.99,71.24,71.24,1014,96,1.61,75.0,0.13,100,,,CG,1581138997,1581182995,1014.0,972.0,,,,
373,"[{'id': 800, 'main': 'Clear', 'description': 'clear sky', 'icon': '01d'}]",model,,1581138357,39600,2122493,Omsukchan,200,155.8,62.53,-36.0,-45.15,-36.0,-36.0,1034,99,3.69,8.0,,2,,,RU,1581112154,1581141161,1034.0,934.0,,,,
374,"[{'id': 803, 'main': 'Clouds', 'description': 'broken clouds', 'icon': '04d'}]",stations,10000.0,1581138357,32400,1855540,Naze,200,129.48,28.37,60.69,49.82,59.0,62.6,1019,62,18.34,350.0,,75,1.0,8013.0,JP,1581113173,1581152777,,,31.09,,,
375,"[{'id': 801, 'main': 'Clouds', 'description': 'few clouds', 'icon': '02d'}]",model,,1581138357,10800,1082243,Ambilobe,200,49.05,-13.2,84.69,93.38,84.69,84.69,1015,70,1.72,153.0,,17,,,MG,1581129589,1581174969,1015.0,1011.0,,,,
376,"[{'id': 500, 'main': 'Rain', 'description': 'light rain', 'icon': '10d'}]",stations,10000.0,1581138357,7200,358619,Port Said,200,32.28,31.26,51.8,41.67,51.8,51.8,1021,87,17.22,230.0,0.38,59,1.0,2522.0,EG,1581136736,1581175872,,,,,,
377,"[{'id': 600, 'main': 'Snow', 'description': 'light snow', 'icon': '13n'}]",stations,8047.0,1581138357,-18000,5883074,Albanel,200,-72.45,48.88,2.68,-12.87,1.4,3.99,999,70,16.11,320.0,,90,1.0,901.0,CA,1581163831,1581199049,,,24.16,,,
378,"[{'id': 600, 'main': 'Snow', 'description': 'light snow', 'icon': '13n'}]",stations,8047.0,1581138357,-18000,6111696,Port-Cartier,200,-66.87,50.03,7.45,-5.28,6.8,8.01,992,71,11.41,360.0,,90,1.0,1013.0,CA,1581162670,1581197532,,,21.92,,,
379,"[{'id': 800, 'main': 'Clear', 'description': 'clear sky', 'icon': '01d'}]",stations,10000.0,1581138306,28800,2037712,Dehui,200,125.7,44.53,10.4,1.35,10.4,10.4,1032,46,4.47,10.0,,0,1.0,9675.0,CN,1581115721,1581152043,,,,,,
380,"[{'id': 800, 'main': 'Clear', 'description': 'clear sky', 'icon': '01n'}]",model,,1581138358,-21600,3981391,Tomatlan,200,-105.25,19.93,59.72,60.51,59.72,59.72,1015,91,2.57,73.0,,0,,,MX,1581082462,1581123356,1015.0,970.0,,,,
381,"[{'id': 500, 'main': 'Rain', 'description': 'light rain', 'icon': '10d'}]",stations,,1581138358,46800,2179825,Waitati,200,170.57,-45.75,55.99,53.83,55.99,55.99,1003,68,1.99,225.0,0.19,77,3.0,2031989.0,NZ,1581097287,1581148939,,,8.01,,,
382,"[{'id': 803, 'main': 'Clouds', 'description': 'broken clouds', 'icon': '04n'}]",stations,16093.0,1581138074,-18000,4845585,Westport,200,-73.36,41.14,31.69,16.57,28.0,35.6,1004,50,17.22,270.0,,75,1.0,3409.0,US,1581163048,1581200269,,,26.4,,,
383,"[{'id': 801, 'main': 'Clouds', 'description': 'few clouds', 'icon': '02n'}]",stations,10000.0,1581138358,10800,548972,Khvastovichi,200,35.09,53.47,8.6,-1.26,8.6,8.6,1021,84,6.71,340.0,,11,1.0,9019.0,RU,1581138819,1581172440,,,,,,
384,"[{'id': 801, 'main': 'Clouds', 'description': 'few clouds', 'icon': '02n'}]",stations,10000.0,1581138141,0,2641598,Newport,200,-3.0,51.59,44.42,36.55,42.01,46.4,1012,87,10.29,240.0,,20,1.0,1398.0,GB,1581147614,1581181929,,,,,,
385,"[{'id': 802, 'main': 'Clouds', 'description': 'scattered clouds', 'icon': '03d'}]",stations,10000.0,1581138358,32400,1859765,Katsuyama,200,136.5,36.06,40.6,27.57,37.99,42.8,1016,76,17.22,40.0,,40,1.0,8017.0,JP,1581112183,1581150397,,,,,,
386,"[{'id': 803, 'main': 'Clouds', 'description': 'broken clouds', 'icon': '04n'}]",stations,10000.0,1581138358,3600,3115824,Muros,200,-9.06,42.78,49.24,47.23,46.4,54.0,1022,100,3.36,320.0,,75,1.0,6434.0,ES,1581147819,1581184633,,,,,,
387,"[{'id': 701, 'main': 'Mist', 'description': 'mist', 'icon': '50d'}]",stations,3500.0,1581138358,19800,1261748,Narsipatnam,200,82.62,17.67,77.0,82.72,77.0,77.0,1018,83,4.7,340.0,,75,1.0,9255.0,IN,1581123599,1581164845,,,,,,
388,"[{'id': 802, 'main': 'Clouds', 'description': 'scattered clouds', 'icon': '03d'}]",stations,10000.0,1581138359,32400,1861280,Itoman,200,127.67,26.12,66.92,54.12,64.4,68.0,1021,60,24.16,360.0,,40,1.0,8137.0,JP,1581113424,1581153395,,,,,,
389,"[{'id': 721, 'main': 'Haze', 'description': 'haze', 'icon': '50d'}]",stations,3600.0,1581138359,18000,1165057,Shinpokh,200,71.18,34.33,52.23,45.32,50.0,53.6,1023,37,4.7,230.0,,5,1.0,7590.0,PK,1581127684,1581166251,,,,,,
390,"[{'id': 721, 'main': 'Haze', 'description': 'haze', 'icon': '50d'}]",stations,4000.0,1581138359,19800,1263983,Mamit,200,92.48,23.93,66.2,62.58,66.2,66.2,1020,42,3.36,50.0,,75,1.0,9122.0,IN,1581121695,1581162016,,,,,,
391,"[{'id': 800, 'main': 'Clear', 'description': 'clear sky', 'icon': '01n'}]",stations,10000.0,1581138359,3600,3175788,Oga,200,10.35,46.46,20.82,13.64,6.8,28.99,1024,84,3.36,220.0,,0,1.0,6945.0,IT,1581143634,1581179501,,,,,,
392,"[{'id': 800, 'main': 'Clear', 'description': 'clear sky', 'icon': '01n'}]",model,,1581138359,-28800,3984997,San Quintin,200,-115.95,30.48,55.71,52.77,55.71,55.71,1017,85,5.97,333.0,,0,,,MX,1581085869,1581125085,1017.0,1014.0,,,,
393,"[{'id': 802, 'main': 'Clouds', 'description': 'scattered clouds', 'icon': '03d'}]",stations,10000.0,1581138359,32400,1847947,Shingu,200,135.98,33.73,53.6,38.77,53.6,53.6,1014,40,19.46,330.0,,40,1.0,7959.0,JP,1581112085,1581150745,,,,,,
394,"[{'id': 800, 'main': 'Clear', 'description': 'clear sky', 'icon': '01d'}]",model,,1581138359,28800,1528998,Yumen,200,97.2,40.28,40.42,25.03,40.42,40.42,1033,20,16.35,282.0,,0,,,CN,1581122050,1581159395,1033.0,868.0,,,,
395,"[{'id': 802, 'main': 'Clouds', 'description': 'scattered clouds', 'icon': '03n'}]",stations,,1581138184,-10800,3421719,Narsaq,200,-46.05,60.92,19.4,4.98,19.4,19.4,964,57,14.99,250.0,,47,1.0,47.0,GL,1581159999,1581190209,,,,,,
396,"[{'id': 803, 'main': 'Clouds', 'description': 'broken clouds', 'icon': '04n'}]",stations,16093.0,1581138310,-18000,4160812,Key West,200,-81.78,24.56,65.88,61.0,64.99,66.2,1021,68,11.41,20.0,,75,1.0,5107.0,US,1581163550,1581203809,,,,,,
397,"[{'id': 501, 'main': 'Rain', 'description': 'moderate rain', 'icon': '10n'}]",model,,1581138360,-10800,3389822,Salinopolis,200,-47.36,-0.61,77.9,78.35,77.9,77.9,1010,86,15.93,51.0,7.25,100,,,BR,1581153572,1581197264,1010.0,1010.0,,,,
398,"[{'id': 804, 'main': 'Clouds', 'description': 'overcast clouds', 'icon': '04d'}]",stations,10000.0,1581138360,14400,541349,Krasnyy Yar,200,48.35,46.53,32.0,24.78,32.0,32.0,1008,71,4.61,2.0,,91,1.0,8974.0,RU,1581134532,1581170361,,,,,,
399,"[{'id': 804, 'main': 'Clouds', 'description': 'overcast clouds', 'icon': '04n'}]",stations,7000.0,1581138360,-10800,3430863,Mar del Plata,200,-57.56,-38.0,64.09,64.27,64.0,64.4,1017,88,5.82,230.0,,90,1.0,8305.0,AR,1581153075,1581202658,,,,,,
400,"[{'id': 803, 'main': 'Clouds', 'description': 'broken clouds', 'icon': '04n'}]",stations,14484.0,1581138153,-18000,5919850,Chapais,200,-74.85,49.78,-11.2,-23.21,-11.2,-11.2,1002,69,9.17,340.0,,75,1.0,859.0,CA,1581164544,1581199488,,,,,,
401,"[{'id': 803, 'main': 'Clouds', 'description': 'broken clouds', 'icon': '04n'}]",stations,10000.0,1581138360,-36000,4033356,Tiarei,200,-149.33,-17.53,86.0,87.08,86.0,86.0,1013,51,8.05,100.0,,75,1.0,7318.0,PF,1581090477,1581136499,,,,,,
402,"[{'id': 803, 'main': 'Clouds', 'description': 'broken clouds', 'icon': '04n'}]",stations,,1581138216,-10800,3440714,Salto,200,-57.97,-31.38,77.0,82.74,77.0,77.0,1011,87,5.99,180.0,,62,3.0,2016451.0,UY,1581153845,1581202085,,,,,,
403,"[{'id': 802, 'main': 'Clouds', 'description': 'scattered clouds', 'icon': '03n'}]",stations,,1581138361,-14400,3633677,Los Rastrojos,200,-69.24,10.03,71.6,72.55,71.6,71.6,1018,73,5.82,60.0,,29,1.0,8738.0,VE,1581159516,1581201823,,,,,,
404,"[{'id': 500, 'main': 'Rain', 'description': 'light rain', 'icon': '10d'}]",model,,1581138361,36000,2092164,Lorengau,200,147.27,-2.02,81.9,83.48,81.9,81.9,1007,79,15.28,309.0,3.0,97,,,PG,1581106766,1581150644,1007.0,1007.0,,,,
405,"[{'id': 803, 'main': 'Clouds', 'description': 'broken clouds', 'icon': '04d'}]",model,,1581138245,3600,3351024,Caluquembe,200,14.68,-13.78,61.61,60.82,61.61,61.61,1016,90,6.33,292.0,,83,,,AO,1581137800,1581183256,1016.0,839.0,,,,
406,"[{'id': 804, 'main': 'Clouds', 'description': 'overcast clouds', 'icon': '04n'}]",stations,,1581138361,-10800,3430443,Necochea,200,-58.74,-38.55,62.01,62.22,62.01,62.01,1018,91,5.01,180.0,,100,3.0,2019717.0,AR,1581153297,1581203002,,,15.01,,,
407,"[{'id': 804, 'main': 'Clouds', 'description': 'overcast clouds', 'icon': '04d'}]",model,,1581138208,7200,219414,Basoko,200,23.62,1.24,77.76,80.73,77.76,77.76,1012,63,3.47,99.0,,92,,,CD,1581136657,1581180108,1012.0,962.0,,,,
408,"[{'id': 800, 'main': 'Clear', 'description': 'clear sky', 'icon': '01n'}]",stations,16093.0,1581138361,-36000,5847411,Kahului,200,-156.47,20.89,66.87,61.86,63.0,71.6,1008,60,10.29,330.0,,1,1.0,7879.0,US,1581094822,1581135582,,,,,,
409,"[{'id': 501, 'main': 'Rain', 'description': 'moderate rain', 'icon': '10n'}]",stations,16093.0,1581138312,-28800,5746545,Portland,200,-122.68,45.52,44.62,32.54,41.0,48.2,1015,81,17.22,270.0,,90,1.0,5321.0,US,1581089086,1581125098,,,,1.79,,
410,"[{'id': 801, 'main': 'Clouds', 'description': 'few clouds', 'icon': '02d'}]",stations,6000.0,1581138361,19800,1278935,Amalapuram,200,82.02,16.58,82.4,86.74,82.4,82.4,1017,69,6.93,110.0,,20,1.0,9225.0,IN,1581123666,1581165066,,,,,,
411,"[{'id': 800, 'main': 'Clear', 'description': 'clear sky', 'icon': '01d'}]",model,,1581138362,36000,2013465,Verkhoyansk,200,133.38,67.54,-34.73,-42.66,-34.73,-34.73,1023,88,1.54,82.0,,0,,,RU,1581119658,1581144419,1023.0,986.0,,,,
412,"[{'id': 600, 'main': 'Snow', 'description': 'light snow', 'icon': '13d'}]",model,,1581138362,18000,1495626,Pangody,200,74.49,65.85,-6.29,-17.64,-6.29,-6.29,1004,97,8.52,227.0,,100,,,RU,1581132918,1581159428,1004.0,996.0,,,0.19,
413,"[{'id': 803, 'main': 'Clouds', 'description': 'broken clouds', 'icon': '04d'}]",stations,10000.0,1581138362,10800,563708,Dzerzhinsk,200,43.46,56.24,7.3,-5.22,6.01,9.0,1016,77,11.18,350.0,,75,1.0,9037.0,RU,1581137371,1581169870,,,,,,
414,"[{'id': 800, 'main': 'Clear', 'description': 'clear sky', 'icon': '01n'}]",model,,1581138098,-10800,3893726,Constitucion,200,-72.42,-35.33,59.32,55.18,59.32,59.32,1014,50,3.65,122.0,,0,,,CL,1581156929,1581205937,1014.0,996.0,,,,
415,"[{'id': 802, 'main': 'Clouds', 'description': 'scattered clouds', 'icon': '03d'}]",model,,1581138362,46800,2184707,Wanaka,200,169.15,-44.7,52.38,44.65,52.38,52.38,1018,35,5.88,183.0,,37,,,NZ,1581097779,1581149128,1018.0,892.0,,,,
416,"[{'id': 804, 'main': 'Clouds', 'description': 'overcast clouds', 'icon': '04n'}]",stations,,1581138362,-10800,3421319,Nuuk,200,-51.72,64.18,12.2,-4.11,12.2,12.2,978,78,18.34,350.0,,99,1.0,86.0,GL,1581162445,1581190485,,,,,,
417,"[{'id': 801, 'main': 'Clouds', 'description': 'few clouds', 'icon': '02d'}]",model,,1581138362,19800,1250161,Batticaloa,200,81.69,7.71,83.55,85.82,83.55,83.55,1014,55,5.86,63.0,,21,,,LK,1581123144,1581165746,1014.0,1004.0,,,,
418,"[{'id': 804, 'main': 'Clouds', 'description': 'overcast clouds', 'icon': '04d'}]",model,,1581138363,10800,468747,Yashkul,200,45.34,46.17,33.93,25.95,33.93,33.93,1009,75,6.58,19.0,,97,,,RU,1581135205,1581171134,1009.0,1010.0,,,,
419,"[{'id': 804, 'main': 'Clouds', 'description': 'overcast clouds', 'icon': '04d'}]",stations,10000.0,1581138189,39600,2172880,Byron Bay,200,153.62,-28.65,76.44,79.36,75.0,78.8,1008,83,9.17,160.0,,90,1.0,9537.0,AU,1581103281,1581151081,,,,,,
420,"[{'id': 801, 'main': 'Clouds', 'description': 'few clouds', 'icon': '02n'}]",stations,10000.0,1581138363,-14400,3579925,Saint George's,200,-61.75,12.06,77.0,77.56,77.0,77.0,1016,83,13.87,70.0,,20,1.0,8781.0,GD,1581157854,1581199890,,,,,,
421,"[{'id': 500, 'main': 'Rain', 'description': 'light rain', 'icon': '10d'}]",stations,,1581138363,46800,2180815,Tuatapere,200,167.68,-46.13,54.0,39.72,54.0,54.0,1022,63,21.99,222.0,0.12,78,3.0,2008959.0,NZ,1581097925,1581149688,,,38.99,,,
422,"[{'id': 801, 'main': 'Clouds', 'description': 'few clouds', 'icon': '02n'}]",stations,10000.0,1581138363,3600,2334652,Keffi,200,7.87,8.85,69.8,64.4,69.8,69.8,1013,43,8.05,50.0,,18,1.0,1173.0,NG,1581140934,1581183391,,,,,,
